[{"id": "496", "type": "BIKE", "latitude": 41.404839, "longitude": 2.17482, "streetName": "C/ PROVEN\u00c7A, 445", "streetNumber": "", "slots": 6, "bikes": 12, "type_bicing": 2, "electrical_bikes": 0, "mechanical_bikes": 12, "status": 1, "disponibilidad": 75, "icon": "/modules/custom/mapa_disponibilitat/assets/icons/ubicacio-75.png", "transition_start": "", "transition_end": ""}, {"id": "495", "type": "BIKE", "latitude": 41.3767081, "longitude": 2.1483947, "streetName": "C/ DIPUTACI\u00d3 - TARRAGONA", "streetNumber": "", "slots": 20, "bikes": 3, "type_bicing": 2, "electrical_bikes": 1, "mechanical_bikes": 2, "status": 1, "disponibilidad": 25, "icon": "/modules/custom/mapa_disponibilitat/assets/icons/ubicacio-25.png", "transition_start": "", "transition_end": ""}, {"id": "494", "type": "BIKE", "latitude": 41.3896703, "longitude": 2.1654279, "streetName": "RAMBLA CATALUNYA/DIPUTACIO", "streetNumber": "", "slots": 19, "bikes": 4, "type_bicing": 2, "electrical_bikes": 0, "mechanical_bikes": 4, "status": 1, "disponibilidad": 25, "icon": "/modules/custom/mapa_disponibilitat/assets/icons/ubicacio-25.png", "transition_start": "", "transition_end": ""}, {"id": "492", "type": "BIKE", "latitude": 41.3944248, "longitude": 2.1751026, "streetName": "PL. TETUAN", "streetNumber": "", "slots": 9, "bikes": 12, "type_bicing": 2, "electrical_bikes": 2, "mechanical_bikes": 10, "status": 1, "disponibilidad": 50, "icon": "/modules/custom/mapa_disponibilitat/assets/icons/ubicacio-50.png", "transition_start": "", "transition_end": ""}, {"id": "428", "type": "BIKE", "latitude": 41.398389, "longitude": 2.196261, "streetName": "C/ PUJADES, 103", "streetNumber": "", "slots": 25, "bikes": 0, "type_bicing": 2, "electrical_bikes": 0, "mechanical_bikes": 0, "status": 1, "disponibilidad": 0, "icon": "/modules/custom/mapa_disponibilitat/assets/icons/ubicacio-0.png", "transition_start": "", "transition_end": ""}, {"id": "427", "type": "BIKE", "latitude": 41.375336, "longitude": 2.168007, "streetName": "C/ DE SANT PAU, 119/ RONDA SANT PAU", "streetNumber": "", "slots": 2, "bikes": 17, "type_bicing": 2, "electrical_bikes": 1, "mechanical_bikes": 16, "status": 1, "disponibilidad": 75, "icon": "/modules/custom/mapa_disponibilitat/assets/icons/ubicacio-75.png", "transition_start": "", "transition_end": ""}, {"id": "426", "type": "BIKE", "latitude": 41.398305, "longitude": 2.183023, "streetName": "C/ DE RIBES, 59 B", "streetNumber": "", "slots": 7, "bikes": 23, "type_bicing": 2, "electrical_bikes": 0, "mechanical_bikes": 23, "status": 1, "disponibilidad": 75, "icon": "/modules/custom/mapa_disponibilitat/assets/icons/ubicacio-75.png", "transition_start": "", "transition_end": ""}, {"id": "425", "type": "BIKE", "latitude": "41.37652", "longitude": "2.1749", "streetName": "Carrer de Cervell\u00f3 5", "streetNumber": "", "slots": 27, "bikes": 0, "type_bicing": 2, "electrical_bikes": 0, "mechanical_bikes": 0, "status": 0, "disponibilidad": 0, "icon": "/modules/custom/mapa_disponibilitat/assets/icons/ubicacio3.png", "transition_start": "", "transition_end": ""}, {"id": "424", "type": "BIKE", "latitude": 41.379632, "longitude": 2.192662, "streetName": "PG. MAR\u00cdTIM DE LA BARCELONETA", "streetNumber": "", "slots": 7, "bikes": 20, "type_bicing": 2, "electrical_bikes": 1, "mechanical_bikes": 19, "status": 1, "disponibilidad": 75, "icon": "/modules/custom/mapa_disponibilitat/assets/icons/ubicacio-75.png", "transition_start": "", "transition_end": ""}, {"id": "423", "type": "BIKE", "latitude": 41.420201, "longitude": 2.189532, "streetName": "C/ HONDURAS, 32-34", "streetNumber": "", "slots": 15, "bikes": 13, "type_bicing": 2, "electrical_bikes": 0, "mechanical_bikes": 13, "status": 1, "disponibilidad": 50, "icon": "/modules/custom/mapa_disponibilitat/assets/icons/ubicacio-50.png", "transition_start": "", "transition_end": ""}, {"id": "421", "type": "BIKE", "latitude": 41.378031, "longitude": 2.139124, "streetName": "PL. DE JOAN PEIR\u00d3", "streetNumber": "", "slots": 25, "bikes": 6, "type_bicing": 2, "electrical_bikes": 1, "mechanical_bikes": 5, "status": 1, "disponibilidad": 25, "icon": "/modules/custom/mapa_disponibilitat/assets/icons/ubicacio-25.png", "transition_start": "", "transition_end": ""}, {"id": "420", "type": "BIKE", "latitude": 41.374213, "longitude": 2.148082, "streetName": "GRAN VIA DE LES CORTS CATALANES, 361", "streetNumber": "", "slots": 18, "bikes": 9, "type_bicing": 2, "electrical_bikes": 0, "mechanical_bikes": 9, "status": 1, "disponibilidad": 25, "icon": "/modules/custom/mapa_disponibilitat/assets/icons/ubicacio-25.png", "transition_start": "", "transition_end": ""}, {"id": "419", "type": "BIKE", "latitude": 41.391299, "longitude": 2.180828, "streetName": "PG.DE LLU\u00edS COMPANYS (ARC DE TRIOMF)", "streetNumber": "", "slots": 3, "bikes": 30, "type_bicing": 2, "electrical_bikes": 0, "mechanical_bikes": 30, "status": 1, "disponibilidad": 75, "icon": "/modules/custom/mapa_disponibilitat/assets/icons/ubicacio-75.png", "transition_start": "", "transition_end": ""}, {"id": "418", "type": "BIKE", "latitude": 41.390943, "longitude": 2.180251, "streetName": "PG. DE LLU\u00edS COMPANYS (ARC DE TRIOMF)", "streetNumber": "", "slots": 2, "bikes": 22, "type_bicing": 2, "electrical_bikes": 1, "mechanical_bikes": 21, "status": 1, "disponibilidad": 75, "icon": "/modules/custom/mapa_disponibilitat/assets/icons/ubicacio-75.png", "transition_start": "", "transition_end": ""}, {"id": "416", "type": "BIKE", "latitude": 41.378134, "longitude": 2.16965, "streetName": "RAMBLA DEL RAVAL, 20", "streetNumber": "", "slots": 1, "bikes": 26, "type_bicing": 2, "electrical_bikes": 0, "mechanical_bikes": 26, "status": 1, "disponibilidad": 75, "icon": "/modules/custom/mapa_disponibilitat/assets/icons/ubicacio-75.png", "transition_start": "", "transition_end": ""}, {"id": "415", "type": "BIKE", "latitude": 41.379374, "longitude": 2.168921, "streetName": "RAMBLA DEL RAVAL, 13", "streetNumber": "", "slots": 7, "bikes": 17, "type_bicing": 2, "electrical_bikes": 1, "mechanical_bikes": 16, "status": 1, "disponibilidad": 75, "icon": "/modules/custom/mapa_disponibilitat/assets/icons/ubicacio-75.png", "transition_start": "", "transition_end": ""}, {"id": "414", "type": "BIKE", "latitude": 41.393744, "longitude": 2.176451, "streetName": "C/ CASP, 67", "streetNumber": "", "slots": 0, "bikes": 28, "type_bicing": 2, "electrical_bikes": 0, "mechanical_bikes": 28, "status": 1, "disponibilidad": 100, "icon": "/modules/custom/mapa_disponibilitat/assets/icons/ubicacio-100.png", "transition_start": "", "transition_end": ""}, {"id": "413", "type": "BIKE", "latitude": 41.393512, "longitude": 2.170718, "streetName": "C/ BRUC, 66", "streetNumber": "", "slots": 32, "bikes": 0, "type_bicing": 2, "electrical_bikes": 0, "mechanical_bikes": 0, "status": 1, "disponibilidad": 0, "icon": "/modules/custom/mapa_disponibilitat/assets/icons/ubicacio-0.png", "transition_start": "", "transition_end": ""}, {"id": "412", "type": "BIKE", "latitude": 41.389012, "longitude": 2.172667, "streetName": "PL. URQUINAONA, 3", "streetNumber": "", "slots": 10, "bikes": 16, "type_bicing": 2, "electrical_bikes": 1, "mechanical_bikes": 15, "status": 1, "disponibilidad": 50, "icon": "/modules/custom/mapa_disponibilitat/assets/icons/ubicacio-50.png", "transition_start": "", "transition_end": ""}, {"id": "410", "type": "BIKE", "latitude": 41.376433, "longitude": 2.17871, "streetName": "PG.DE COLOM (LES RAMBLES)", "streetNumber": "", "slots": 0, "bikes": 32, "type_bicing": 2, "electrical_bikes": 0, "mechanical_bikes": 32, "status": 1, "disponibilidad": 100, "icon": "/modules/custom/mapa_disponibilitat/assets/icons/ubicacio-100.png", "transition_start": "", "transition_end": ""}, {"id": "409", "type": "BIKE", "latitude": 41.392272, "longitude": 2.192556, "streetName": "C/ JOAN D'\u00c0USTRIA, 31B", "streetNumber": "", "slots": 8, "bikes": 19, "type_bicing": 2, "electrical_bikes": 0, "mechanical_bikes": 19, "status": 1, "disponibilidad": 75, "icon": "/modules/custom/mapa_disponibilitat/assets/icons/ubicacio-75.png", "transition_start": "", "transition_end": ""}, {"id": "408", "type": "BIKE", "latitude": 41.388988, "longitude": 2.192283, "streetName": "C/ RAMON TRIAS FARGAS, 23", "streetNumber": "", "slots": 16, "bikes": 23, "type_bicing": 2, "electrical_bikes": 0, "mechanical_bikes": 23, "status": 1, "disponibilidad": 50, "icon": "/modules/custom/mapa_disponibilitat/assets/icons/ubicacio-50.png", "transition_start": "", "transition_end": ""}, {"id": "406", "type": "BIKE", "latitude": 41.386512, "longitude": 2.164597, "streetName": "GRAN VIA DE LES CORTS CATALANES, 592", "streetNumber": "", "slots": 4, "bikes": 28, "type_bicing": 2, "electrical_bikes": 0, "mechanical_bikes": 28, "status": 1, "disponibilidad": 75, "icon": "/modules/custom/mapa_disponibilitat/assets/icons/ubicacio-75.png", "transition_start": "", "transition_end": ""}, {"id": "405", "type": "BIKE", "latitude": 41.38551, "longitude": 2.152, "streetName": "C/ COMTE BORRELL, 198", "streetNumber": "", "slots": 16, "bikes": 8, "type_bicing": 2, "electrical_bikes": 2, "mechanical_bikes": 6, "status": 1, "disponibilidad": 25, "icon": "/modules/custom/mapa_disponibilitat/assets/icons/ubicacio-25.png", "transition_start": "", "transition_end": ""}, {"id": "404", "type": "BIKE", "latitude": 41.365374, "longitude": 2.133087, "streetName": "C/ JUAN GRIS, 28", "streetNumber": "", "slots": 16, "bikes": 13, "type_bicing": 2, "electrical_bikes": 1, "mechanical_bikes": 12, "status": 1, "disponibilidad": 50, "icon": "/modules/custom/mapa_disponibilitat/assets/icons/ubicacio-50.png", "transition_start": "", "transition_end": ""}, {"id": "402", "type": "BIKE", "latitude": 41.380705, "longitude": 2.182415, "streetName": "PG. DE COLOM (VIA LAIETANA)", "streetNumber": "", "slots": 4, "bikes": 21, "type_bicing": 2, "electrical_bikes": 0, "mechanical_bikes": 21, "status": 1, "disponibilidad": 75, "icon": "/modules/custom/mapa_disponibilitat/assets/icons/ubicacio-75.png", "transition_start": "", "transition_end": ""}, {"id": "401", "type": "BIKE", "latitude": 41.381241, "longitude": 2.181838, "streetName": "PL. ANTONIO L\u00d3PEZ ( VIA LAIETANA)", "streetNumber": "", "slots": 1, "bikes": 22, "type_bicing": 2, "electrical_bikes": 0, "mechanical_bikes": 22, "status": 1, "disponibilidad": 75, "icon": "/modules/custom/mapa_disponibilitat/assets/icons/ubicacio-75.png", "transition_start": "", "transition_end": ""}, {"id": "400", "type": "BIKE", "latitude": 41.36958, "longitude": 2.188017, "streetName": "MOLL ORIENTAL", "streetNumber": "", "slots": 28, "bikes": 0, "type_bicing": 2, "electrical_bikes": 0, "mechanical_bikes": 0, "status": 1, "disponibilidad": 0, "icon": "/modules/custom/mapa_disponibilitat/assets/icons/ubicacio-0.png", "transition_start": "", "transition_end": ""}, {"id": "398", "type": "BIKE", "latitude": 41.381011, "longitude": 2.193502, "streetName": "PG. MAR\u00cdTIM DE LA BARCELONETA/ANDREA D\u00d2RIA", "streetNumber": "", "slots": 0, "bikes": 27, "type_bicing": 2, "electrical_bikes": 0, "mechanical_bikes": 27, "status": 1, "disponibilidad": 100, "icon": "/modules/custom/mapa_disponibilitat/assets/icons/ubicacio-100.png", "transition_start": "", "transition_end": ""}, {"id": "397", "type": "BIKE", "latitude": 41.388894, "longitude": 2.199334, "streetName": "AV. LITORAL (PG MAR\u00cdTIM DEL PORT OL\u00cdMPIC)", "streetNumber": "", "slots": 25, "bikes": 1, "type_bicing": 2, "electrical_bikes": 0, "mechanical_bikes": 1, "status": 1, "disponibilidad": 25, "icon": "/modules/custom/mapa_disponibilitat/assets/icons/ubicacio-25.png", "transition_start": "", "transition_end": ""}, {"id": "396", "type": "BIKE", "latitude": 41.389028, "longitude": 2.196844, "streetName": "C/ JOAN MIR\u00d3, 2-12", "streetNumber": "", "slots": 7, "bikes": 25, "type_bicing": 2, "electrical_bikes": 1, "mechanical_bikes": 24, "status": 1, "disponibilidad": 75, "icon": "/modules/custom/mapa_disponibilitat/assets/icons/ubicacio-75.png", "transition_start": "", "transition_end": ""}, {"id": "395", "type": "BIKE", "latitude": 41.386009, "longitude": 2.170212, "streetName": "PL. CATALUNYA, 22", "streetNumber": "", "slots": 28, "bikes": 1, "type_bicing": 2, "electrical_bikes": 0, "mechanical_bikes": 1, "status": 1, "disponibilidad": 25, "icon": "/modules/custom/mapa_disponibilitat/assets/icons/ubicacio-25.png", "transition_start": "", "transition_end": ""}, {"id": "394", "type": "BIKE", "latitude": 41.387151, "longitude": 2.162838, "streetName": "C/ DIPUTACI\u00d3, 226", "streetNumber": "", "slots": 1, "bikes": 24, "type_bicing": 2, "electrical_bikes": 2, "mechanical_bikes": 22, "status": 1, "disponibilidad": 75, "icon": "/modules/custom/mapa_disponibilitat/assets/icons/ubicacio-75.png", "transition_start": "", "transition_end": ""}, {"id": "393", "type": "BIKE", "latitude": 41.402177, "longitude": 2.197653, "streetName": "C/ LLACUNA, 86", "streetNumber": "", "slots": 29, "bikes": 3, "type_bicing": 2, "electrical_bikes": 0, "mechanical_bikes": 3, "status": 1, "disponibilidad": 25, "icon": "/modules/custom/mapa_disponibilitat/assets/icons/ubicacio-25.png", "transition_start": "", "transition_end": ""}, {"id": "392", "type": "BIKE", "latitude": 41.390595, "longitude": 2.190681, "streetName": "C/ RAMON TURR\u00d3, 4", "streetNumber": "", "slots": 10, "bikes": 8, "type_bicing": 2, "electrical_bikes": 0, "mechanical_bikes": 8, "status": 1, "disponibilidad": 50, "icon": "/modules/custom/mapa_disponibilitat/assets/icons/ubicacio-50.png", "transition_start": "", "transition_end": ""}, {"id": "391", "type": "BIKE", "latitude": 41.422873, "longitude": 2.191204, "streetName": "C/ SAGRERA, 74", "streetNumber": "", "slots": 8, "bikes": 19, "type_bicing": 2, "electrical_bikes": 0, "mechanical_bikes": 19, "status": 1, "disponibilidad": 75, "icon": "/modules/custom/mapa_disponibilitat/assets/icons/ubicacio-75.png", "transition_start": "", "transition_end": ""}, {"id": "390", "type": "BIKE", "latitude": 41.386955, "longitude": 2.18195, "streetName": "C/ COMER\u00c7, 36", "streetNumber": "", "slots": 4, "bikes": 21, "type_bicing": 2, "electrical_bikes": 0, "mechanical_bikes": 21, "status": 1, "disponibilidad": 75, "icon": "/modules/custom/mapa_disponibilitat/assets/icons/ubicacio-75.png", "transition_start": "", "transition_end": ""}, {"id": "389", "type": "BIKE", "latitude": 41.38739, "longitude": 2.1875, "streetName": "RECINTE PARC DE LA CIUTADELLA", "streetNumber": "", "slots": 18, "bikes": 9, "type_bicing": 2, "electrical_bikes": 1, "mechanical_bikes": 8, "status": 1, "disponibilidad": 25, "icon": "/modules/custom/mapa_disponibilitat/assets/icons/ubicacio-25.png", "transition_start": "", "transition_end": ""}, {"id": "388", "type": "BIKE", "latitude": 41.380593, "longitude": 2.167418, "streetName": "C/ RIERA ALTA, 6", "streetNumber": "", "slots": 5, "bikes": 22, "type_bicing": 2, "electrical_bikes": 1, "mechanical_bikes": 21, "status": 1, "disponibilidad": 75, "icon": "/modules/custom/mapa_disponibilitat/assets/icons/ubicacio-75.png", "transition_start": "", "transition_end": ""}, {"id": "387", "type": "BIKE", "latitude": 41.395796, "longitude": 2.178784, "streetName": "C/ N\u00c0POLS, 125", "streetNumber": "", "slots": 16, "bikes": 11, "type_bicing": 2, "electrical_bikes": 0, "mechanical_bikes": 11, "status": 1, "disponibilidad": 50, "icon": "/modules/custom/mapa_disponibilitat/assets/icons/ubicacio-50.png", "transition_start": "", "transition_end": ""}, {"id": "386", "type": "BIKE", "latitude": 41.375086, "longitude": 2.156848, "streetName": "AV. PARAL.LEL 164", "streetNumber": "", "slots": 9, "bikes": 15, "type_bicing": 2, "electrical_bikes": 0, "mechanical_bikes": 15, "status": 1, "disponibilidad": 75, "icon": "/modules/custom/mapa_disponibilitat/assets/icons/ubicacio-75.png", "transition_start": "", "transition_end": ""}, {"id": "385", "type": "BIKE", "latitude": 41.387978, "longitude": 2.155266, "streetName": "C/ CASANOVA, 119", "streetNumber": "", "slots": 7, "bikes": 21, "type_bicing": 2, "electrical_bikes": 1, "mechanical_bikes": 20, "status": 1, "disponibilidad": 75, "icon": "/modules/custom/mapa_disponibilitat/assets/icons/ubicacio-75.png", "transition_start": "", "transition_end": ""}, {"id": "384", "type": "BIKE", "latitude": 41.380708, "longitude": 2.146793, "streetName": "C/ VILAMAR\u00cd, 85", "streetNumber": "", "slots": 16, "bikes": 8, "type_bicing": 2, "electrical_bikes": 0, "mechanical_bikes": 8, "status": 1, "disponibilidad": 25, "icon": "/modules/custom/mapa_disponibilitat/assets/icons/ubicacio-25.png", "transition_start": "", "transition_end": ""}, {"id": "382", "type": "BIKE", "latitude": 41.403938, "longitude": 2.204188, "streetName": "C/ LOPE DE VEGA, 79", "streetNumber": "", "slots": 14, "bikes": 12, "type_bicing": 2, "electrical_bikes": 0, "mechanical_bikes": 12, "status": 1, "disponibilidad": 50, "icon": "/modules/custom/mapa_disponibilitat/assets/icons/ubicacio-50.png", "transition_start": "", "transition_end": ""}, {"id": "381", "type": "BIKE", "latitude": 41.381686, "longitude": 2.167816, "streetName": "C/ AGUST\u00cd DURAN I SANPERE, 10", "streetNumber": "", "slots": 17, "bikes": 16, "type_bicing": 2, "electrical_bikes": 0, "mechanical_bikes": 16, "status": 1, "disponibilidad": 50, "icon": "/modules/custom/mapa_disponibilitat/assets/icons/ubicacio-50.png", "transition_start": "", "transition_end": ""}, {"id": "380", "type": "BIKE", "latitude": 41.385463, "longitude": 2.174252, "streetName": "C/ DURAN I BAS, 2", "streetNumber": "", "slots": 2, "bikes": 21, "type_bicing": 2, "electrical_bikes": 0, "mechanical_bikes": 21, "status": 1, "disponibilidad": 75, "icon": "/modules/custom/mapa_disponibilitat/assets/icons/ubicacio-75.png", "transition_start": "", "transition_end": ""}, {"id": "378", "type": "BIKE", "latitude": 41.378516, "longitude": 2.176716, "streetName": "PL. JOAQUIM XIRAU I PALAU, 1", "streetNumber": "", "slots": 1, "bikes": 20, "type_bicing": 2, "electrical_bikes": 0, "mechanical_bikes": 20, "status": 1, "disponibilidad": 75, "icon": "/modules/custom/mapa_disponibilitat/assets/icons/ubicacio-75.png", "transition_start": "", "transition_end": ""}, {"id": "377", "type": "BIKE", "latitude": 41.37747, "longitude": 2.183737, "streetName": "PL. ICT\u00cdNEO", "streetNumber": "", "slots": 22, "bikes": 7, "type_bicing": 2, "electrical_bikes": 0, "mechanical_bikes": 7, "status": 1, "disponibilidad": 25, "icon": "/modules/custom/mapa_disponibilitat/assets/icons/ubicacio-25.png", "transition_start": "", "transition_end": ""}, {"id": "376", "type": "BIKE", "latitude": 41.371663, "longitude": 2.180302, "streetName": "WORLD  TRADE CENTER", "streetNumber": "", "slots": 27, "bikes": 0, "type_bicing": 2, "electrical_bikes": 0, "mechanical_bikes": 0, "status": 1, "disponibilidad": 0, "icon": "/modules/custom/mapa_disponibilitat/assets/icons/ubicacio-0.png", "transition_start": "", "transition_end": ""}, {"id": "375", "type": "BIKE", "latitude": 41.372154, "longitude": 2.180701, "streetName": "WORLD TRADE CENTER", "streetNumber": "", "slots": 27, "bikes": 0, "type_bicing": 2, "electrical_bikes": 0, "mechanical_bikes": 0, "status": 1, "disponibilidad": 0, "icon": "/modules/custom/mapa_disponibilitat/assets/icons/ubicacio-0.png", "transition_start": "", "transition_end": ""}, {"id": "374", "type": "BIKE", "latitude": 41.395, "longitude": 2.16123, "streetName": "PG. DE GR\u00c0CIA, 89", "streetNumber": "", "slots": 31, "bikes": 0, "type_bicing": 2, "electrical_bikes": 0, "mechanical_bikes": 0, "status": 1, "disponibilidad": 0, "icon": "/modules/custom/mapa_disponibilitat/assets/icons/ubicacio-0.png", "transition_start": "", "transition_end": ""}, {"id": "373", "type": "BIKE", "latitude": 41.375073, "longitude": 2.161305, "streetName": "AV. PARAL.LEL, 132", "streetNumber": "", "slots": 1, "bikes": 25, "type_bicing": 2, "electrical_bikes": 2, "mechanical_bikes": 23, "status": 1, "disponibilidad": 75, "icon": "/modules/custom/mapa_disponibilitat/assets/icons/ubicacio-75.png", "transition_start": "", "transition_end": ""}, {"id": "372", "type": "BIKE", "latitude": 41.400167, "longitude": 2.184362, "streetName": "C/ RIBES, 77", "streetNumber": "", "slots": 5, "bikes": 20, "type_bicing": 2, "electrical_bikes": 0, "mechanical_bikes": 20, "status": 1, "disponibilidad": 75, "icon": "/modules/custom/mapa_disponibilitat/assets/icons/ubicacio-75.png", "transition_start": "", "transition_end": ""}, {"id": "371", "type": "BIKE", "latitude": 41.404027, "longitude": 2.181264, "streetName": "C/ DELS ENAMORATS, 49", "streetNumber": "", "slots": 14, "bikes": 16, "type_bicing": 2, "electrical_bikes": 0, "mechanical_bikes": 16, "status": 1, "disponibilidad": 50, "icon": "/modules/custom/mapa_disponibilitat/assets/icons/ubicacio-50.png", "transition_start": "", "transition_end": ""}, {"id": "370", "type": "BIKE", "latitude": 41.40377, "longitude": 2.172864, "streetName": "C/ SARDENYA, 326", "streetNumber": "", "slots": 23, "bikes": 3, "type_bicing": 2, "electrical_bikes": 0, "mechanical_bikes": 3, "status": 1, "disponibilidad": 25, "icon": "/modules/custom/mapa_disponibilitat/assets/icons/ubicacio-25.png", "transition_start": "", "transition_end": ""}, {"id": "369", "type": "BIKE", "latitude": 41.400168, "longitude": 2.177948, "streetName": "C/ CONSELL DE CENT, 482", "streetNumber": "", "slots": 18, "bikes": 5, "type_bicing": 2, "electrical_bikes": 0, "mechanical_bikes": 5, "status": 1, "disponibilidad": 25, "icon": "/modules/custom/mapa_disponibilitat/assets/icons/ubicacio-25.png", "transition_start": "", "transition_end": ""}, {"id": "368", "type": "BIKE", "latitude": 41.396815, "longitude": 2.175714, "streetName": "C/ DIPUTACI\u00d3, 350", "streetNumber": "", "slots": 7, "bikes": 20, "type_bicing": 2, "electrical_bikes": 1, "mechanical_bikes": 19, "status": 1, "disponibilidad": 75, "icon": "/modules/custom/mapa_disponibilitat/assets/icons/ubicacio-75.png", "transition_start": "", "transition_end": ""}, {"id": "367", "type": "BIKE", "latitude": 41.385057, "longitude": 2.137331, "streetName": "C/ MARQU\u00c8S DE SENTMENAT, 46", "streetNumber": "", "slots": 30, "bikes": 0, "type_bicing": 2, "electrical_bikes": 0, "mechanical_bikes": 0, "status": 1, "disponibilidad": 0, "icon": "/modules/custom/mapa_disponibilitat/assets/icons/ubicacio-0.png", "transition_start": "", "transition_end": ""}, {"id": "365", "type": "BIKE", "latitude": 41.387499, "longitude": 2.14702, "streetName": "C/ VILADOMAT, 244", "streetNumber": "", "slots": 30, "bikes": 0, "type_bicing": 2, "electrical_bikes": 0, "mechanical_bikes": 0, "status": 1, "disponibilidad": 0, "icon": "/modules/custom/mapa_disponibilitat/assets/icons/ubicacio-0.png", "transition_start": "", "transition_end": ""}, {"id": "364", "type": "BIKE", "latitude": 41.39324, "longitude": 2.16343, "streetName": "PG. DE GR\u00c0CIA, 61", "streetNumber": "", "slots": 30, "bikes": 0, "type_bicing": 2, "electrical_bikes": 0, "mechanical_bikes": 0, "status": 1, "disponibilidad": 0, "icon": "/modules/custom/mapa_disponibilitat/assets/icons/ubicacio-0.png", "transition_start": "", "transition_end": ""}, {"id": "363", "type": "BIKE", "latitude": 41.39076, "longitude": 2.1744, "streetName": "C/ BRUC, 20", "streetNumber": "", "slots": 10, "bikes": 13, "type_bicing": 2, "electrical_bikes": 0, "mechanical_bikes": 13, "status": 1, "disponibilidad": 50, "icon": "/modules/custom/mapa_disponibilitat/assets/icons/ubicacio-50.png", "transition_start": "", "transition_end": ""}, {"id": "362", "type": "BIKE", "latitude": 41.397006, "longitude": 2.17057, "streetName": "C/ BAIL\u00c9N, 100", "streetNumber": "", "slots": 18, "bikes": 12, "type_bicing": 2, "electrical_bikes": 1, "mechanical_bikes": 11, "status": 1, "disponibilidad": 50, "icon": "/modules/custom/mapa_disponibilitat/assets/icons/ubicacio-50.png", "transition_start": "", "transition_end": ""}, {"id": "361", "type": "BIKE", "latitude": 41.376292, "longitude": 2.178553, "streetName": "PG. DE COLOM (LES RAMBLES)", "streetNumber": "", "slots": 1, "bikes": 31, "type_bicing": 2, "electrical_bikes": 0, "mechanical_bikes": 31, "status": 1, "disponibilidad": 75, "icon": "/modules/custom/mapa_disponibilitat/assets/icons/ubicacio-75.png", "transition_start": "", "transition_end": ""}, {"id": "360", "type": "BIKE", "latitude": 41.395213, "longitude": 2.172984, "streetName": "C/ BAIL\u00c9N, 62", "streetNumber": "", "slots": 27, "bikes": 3, "type_bicing": 2, "electrical_bikes": 0, "mechanical_bikes": 3, "status": 1, "disponibilidad": 25, "icon": "/modules/custom/mapa_disponibilitat/assets/icons/ubicacio-25.png", "transition_start": "", "transition_end": ""}, {"id": "359", "type": "BIKE", "latitude": 41.390021, "longitude": 2.177572, "streetName": "C/ M\u00c9NDEZ N\u00da\u00d1EZ, 16", "streetNumber": "", "slots": 11, "bikes": 8, "type_bicing": 2, "electrical_bikes": 0, "mechanical_bikes": 8, "status": 1, "disponibilidad": 50, "icon": "/modules/custom/mapa_disponibilitat/assets/icons/ubicacio-50.png", "transition_start": "", "transition_end": ""}, {"id": "358", "type": "BIKE", "latitude": 41.387225, "longitude": 2.17927, "streetName": "C/ GOMBAU, 24", "streetNumber": "", "slots": 0, "bikes": 26, "type_bicing": 2, "electrical_bikes": 0, "mechanical_bikes": 26, "status": 1, "disponibilidad": 100, "icon": "/modules/custom/mapa_disponibilitat/assets/icons/ubicacio-100.png", "transition_start": "", "transition_end": ""}, {"id": "357", "type": "BIKE", "latitude": 41.410615, "longitude": 2.157987, "streetName": "C/ CARDENER, 59", "streetNumber": "", "slots": 25, "bikes": 2, "type_bicing": 2, "electrical_bikes": 2, "mechanical_bikes": 0, "status": 1, "disponibilidad": 25, "icon": "/modules/custom/mapa_disponibilitat/assets/icons/ubicacio-25.png", "transition_start": "", "transition_end": ""}, {"id": "356", "type": "BIKE", "latitude": 41.413425, "longitude": 2.163411, "streetName": "C/ CAM\u00c8LIES, 73", "streetNumber": "", "slots": 22, "bikes": 1, "type_bicing": 2, "electrical_bikes": 1, "mechanical_bikes": 0, "status": 1, "disponibilidad": 25, "icon": "/modules/custom/mapa_disponibilitat/assets/icons/ubicacio-25.png", "transition_start": "", "transition_end": ""}, {"id": "354", "type": "BIKE", "latitude": 41.37592, "longitude": 2.13008, "streetName": "RAMBLA DEL BRASIL, 5", "streetNumber": "", "slots": 17, "bikes": 9, "type_bicing": 2, "electrical_bikes": 1, "mechanical_bikes": 8, "status": 1, "disponibilidad": 25, "icon": "/modules/custom/mapa_disponibilitat/assets/icons/ubicacio-25.png", "transition_start": "", "transition_end": ""}, {"id": "353", "type": "BIKE", "latitude": 41.375414, "longitude": 2.123191, "streetName": "C/ MUNN\u00c9  2-6", "streetNumber": "", "slots": 25, "bikes": 6, "type_bicing": 2, "electrical_bikes": 0, "mechanical_bikes": 6, "status": 1, "disponibilidad": 25, "icon": "/modules/custom/mapa_disponibilitat/assets/icons/ubicacio-25.png", "transition_start": "", "transition_end": ""}, {"id": "352", "type": "BIKE", "latitude": 41.36335, "longitude": 2.134144, "streetName": "C/RADI,10/GRAN VIA DE LES CORTS CATALANES", "streetNumber": "", "slots": 15, "bikes": 13, "type_bicing": 2, "electrical_bikes": 0, "mechanical_bikes": 13, "status": 1, "disponibilidad": 50, "icon": "/modules/custom/mapa_disponibilitat/assets/icons/ubicacio-50.png", "transition_start": "", "transition_end": ""}, {"id": "351", "type": "BIKE", "latitude": 41.362135, "longitude": 2.135637, "streetName": "C/ JANE ADDAMS, 26/ CRTA. DEL PRAT", "streetNumber": "", "slots": 14, "bikes": 19, "type_bicing": 2, "electrical_bikes": 0, "mechanical_bikes": 19, "status": 1, "disponibilidad": 50, "icon": "/modules/custom/mapa_disponibilitat/assets/icons/ubicacio-50.png", "transition_start": "", "transition_end": ""}, {"id": "350", "type": "BIKE", "latitude": 41.391833, "longitude": 2.14812, "streetName": "C/ VILLARROEL, 208", "streetNumber": "", "slots": 31, "bikes": 0, "type_bicing": 2, "electrical_bikes": 0, "mechanical_bikes": 0, "status": 1, "disponibilidad": 0, "icon": "/modules/custom/mapa_disponibilitat/assets/icons/ubicacio-0.png", "transition_start": "", "transition_end": ""}, {"id": "349", "type": "BIKE", "latitude": 41.357338, "longitude": 2.137172, "streetName": "C/ DE L'ENERGIA, 2 / ALTS FORNS", "streetNumber": "", "slots": 19, "bikes": 13, "type_bicing": 2, "electrical_bikes": 0, "mechanical_bikes": 13, "status": 1, "disponibilidad": 50, "icon": "/modules/custom/mapa_disponibilitat/assets/icons/ubicacio-50.png", "transition_start": "", "transition_end": ""}, {"id": "348", "type": "BIKE", "latitude": 41.357067, "longitude": 2.141563, "streetName": "JARDINS DE CAN FERRERO/PG.DE LA ZONA FRANCA", "streetNumber": "", "slots": 17, "bikes": 16, "type_bicing": 2, "electrical_bikes": 0, "mechanical_bikes": 16, "status": 1, "disponibilidad": 50, "icon": "/modules/custom/mapa_disponibilitat/assets/icons/ubicacio-50.png", "transition_start": "", "transition_end": ""}, {"id": "347", "type": "BIKE", "latitude": 41.359496, "longitude": 2.14182, "streetName": "C/ ALTS FORNS, 77", "streetNumber": "", "slots": 2, "bikes": 26, "type_bicing": 2, "electrical_bikes": 0, "mechanical_bikes": 26, "status": 1, "disponibilidad": 75, "icon": "/modules/custom/mapa_disponibilitat/assets/icons/ubicacio-75.png", "transition_start": "", "transition_end": ""}, {"id": "346", "type": "BIKE", "latitude": 41.360654, "longitude": 2.139132, "streetName": "C/ DE LA FONERIA, 33", "streetNumber": "", "slots": 4, "bikes": 32, "type_bicing": 2, "electrical_bikes": 1, "mechanical_bikes": 31, "status": 1, "disponibilidad": 75, "icon": "/modules/custom/mapa_disponibilitat/assets/icons/ubicacio-75.png", "transition_start": "", "transition_end": ""}, {"id": "345", "type": "BIKE", "latitude": 41.363093, "longitude": 2.139771, "streetName": "PL. TERESA DE CLARAMUNT/C/ DELS FERROCARILS", "streetNumber": "", "slots": 0, "bikes": 32, "type_bicing": 2, "electrical_bikes": 0, "mechanical_bikes": 32, "status": 1, "disponibilidad": 100, "icon": "/modules/custom/mapa_disponibilitat/assets/icons/ubicacio-100.png", "transition_start": "", "transition_end": ""}, {"id": "344", "type": "BIKE", "latitude": 41.443127, "longitude": 2.199538, "streetName": "C/ CIUTAT D'ASUNCI\u00d3N, 73 / POTOS\u00cd", "streetNumber": "", "slots": 16, "bikes": 11, "type_bicing": 2, "electrical_bikes": 0, "mechanical_bikes": 11, "status": 1, "disponibilidad": 50, "icon": "/modules/custom/mapa_disponibilitat/assets/icons/ubicacio-50.png", "transition_start": "", "transition_end": ""}, {"id": "343", "type": "BIKE", "latitude": 41.438886, "longitude": 2.199598, "streetName": "CAMPANA DE LA MAQUINISTA (SAO PAULO I PL. DE", "streetNumber": "", "slots": 5, "bikes": 22, "type_bicing": 2, "electrical_bikes": 0, "mechanical_bikes": 22, "status": 1, "disponibilidad": 75, "icon": "/modules/custom/mapa_disponibilitat/assets/icons/ubicacio-75.png", "transition_start": "", "transition_end": ""}, {"id": "342", "type": "BIKE", "latitude": 41.403502, "longitude": 2.193702, "streetName": "C/ ROC BORONAT, 134", "streetNumber": "", "slots": 14, "bikes": 12, "type_bicing": 2, "electrical_bikes": 0, "mechanical_bikes": 12, "status": 1, "disponibilidad": 50, "icon": "/modules/custom/mapa_disponibilitat/assets/icons/ubicacio-50.png", "transition_start": "", "transition_end": ""}, {"id": "341", "type": "BIKE", "latitude": 41.433958, "longitude": 2.206166, "streetName": "PG. D'ENRIC SANCHIS, 33", "streetNumber": "", "slots": 5, "bikes": 22, "type_bicing": 2, "electrical_bikes": 0, "mechanical_bikes": 22, "status": 1, "disponibilidad": 75, "icon": "/modules/custom/mapa_disponibilitat/assets/icons/ubicacio-75.png", "transition_start": "", "transition_end": ""}, {"id": "340", "type": "BIKE", "latitude": 41.43619, "longitude": 2.204573, "streetName": "C/ SANT ADRI\u00c0, 113", "streetNumber": "", "slots": 5, "bikes": 19, "type_bicing": 2, "electrical_bikes": 0, "mechanical_bikes": 19, "status": 1, "disponibilidad": 75, "icon": "/modules/custom/mapa_disponibilitat/assets/icons/ubicacio-75.png", "transition_start": "", "transition_end": ""}, {"id": "339", "type": "BIKE", "latitude": 41.401662, "longitude": 2.205277, "streetName": "C/ RAMON TURR\u00d3, 246", "streetNumber": "", "slots": 2, "bikes": 24, "type_bicing": 2, "electrical_bikes": 0, "mechanical_bikes": 24, "status": 1, "disponibilidad": 75, "icon": "/modules/custom/mapa_disponibilitat/assets/icons/ubicacio-75.png", "transition_start": "", "transition_end": ""}, {"id": "338", "type": "BIKE", "latitude": 41.397572, "longitude": 2.119506, "streetName": "AV. J. V. FOIX,  63", "streetNumber": "", "slots": 33, "bikes": 0, "type_bicing": 2, "electrical_bikes": 0, "mechanical_bikes": 0, "status": 1, "disponibilidad": 0, "icon": "/modules/custom/mapa_disponibilitat/assets/icons/ubicacio-0.png", "transition_start": "", "transition_end": ""}, {"id": "337", "type": "BIKE", "latitude": 41.398719, "longitude": 2.120422, "streetName": "C/ CARME KARR, 12-14", "streetNumber": "", "slots": 23, "bikes": 0, "type_bicing": 2, "electrical_bikes": 0, "mechanical_bikes": 0, "status": 1, "disponibilidad": 0, "icon": "/modules/custom/mapa_disponibilitat/assets/icons/ubicacio-0.png", "transition_start": "", "transition_end": ""}, {"id": "336", "type": "BIKE", "latitude": 41.395274, "longitude": 2.120973, "streetName": "C/ CAPONATA, 10", "streetNumber": "", "slots": 27, "bikes": 0, "type_bicing": 2, "electrical_bikes": 0, "mechanical_bikes": 0, "status": 1, "disponibilidad": 0, "icon": "/modules/custom/mapa_disponibilitat/assets/icons/ubicacio-0.png", "transition_start": "", "transition_end": ""}, {"id": "335", "type": "BIKE", "latitude": 41.393639, "longitude": 2.123224, "streetName": "C/ SANTA AM\u00c8LIA, 2", "streetNumber": "", "slots": 27, "bikes": 0, "type_bicing": 2, "electrical_bikes": 0, "mechanical_bikes": 0, "status": 1, "disponibilidad": 0, "icon": "/modules/custom/mapa_disponibilitat/assets/icons/ubicacio-0.png", "transition_start": "", "transition_end": ""}, {"id": "334", "type": "BIKE", "latitude": 41.400722, "longitude": 2.123268, "streetName": "VIA AUGUSTA, 348", "streetNumber": "", "slots": 26, "bikes": 0, "type_bicing": 2, "electrical_bikes": 0, "mechanical_bikes": 0, "status": 1, "disponibilidad": 0, "icon": "/modules/custom/mapa_disponibilitat/assets/icons/ubicacio-0.png", "transition_start": "", "transition_end": ""}, {"id": "333", "type": "BIKE", "latitude": 41.395632, "longitude": 2.125106, "streetName": "PASSATGE DE SENILLOSA, 3-5", "streetNumber": "", "slots": 26, "bikes": 0, "type_bicing": 2, "electrical_bikes": 0, "mechanical_bikes": 0, "status": 1, "disponibilidad": 0, "icon": "/modules/custom/mapa_disponibilitat/assets/icons/ubicacio-0.png", "transition_start": "", "transition_end": ""}, {"id": "332", "type": "BIKE", "latitude": 41.399822, "longitude": 2.12809, "streetName": "C/ DOCTOR ROUX, 86", "streetNumber": "", "slots": 26, "bikes": 1, "type_bicing": 2, "electrical_bikes": 1, "mechanical_bikes": 0, "status": 1, "disponibilidad": 25, "icon": "/modules/custom/mapa_disponibilitat/assets/icons/ubicacio-25.png", "transition_start": "", "transition_end": ""}, {"id": "331", "type": "BIKE", "latitude": 41.39706, "longitude": 2.12801, "streetName": "C/ CASTELLNOU, 65", "streetNumber": "", "slots": 29, "bikes": 2, "type_bicing": 2, "electrical_bikes": 2, "mechanical_bikes": 0, "status": 1, "disponibilidad": 25, "icon": "/modules/custom/mapa_disponibilitat/assets/icons/ubicacio-25.png", "transition_start": "", "transition_end": ""}, {"id": "329", "type": "BIKE", "latitude": 41.402879, "longitude": 2.128541, "streetName": "C/ DE LES ESCOLES PIES, 99", "streetNumber": "", "slots": 27, "bikes": 0, "type_bicing": 2, "electrical_bikes": 0, "mechanical_bikes": 0, "status": 1, "disponibilidad": 0, "icon": "/modules/custom/mapa_disponibilitat/assets/icons/ubicacio-0.png", "transition_start": "", "transition_end": ""}, {"id": "328", "type": "BIKE", "latitude": 41.40293, "longitude": 2.13427, "streetName": "C/ ARTESA DE SEGRE, 2", "streetNumber": "", "slots": 22, "bikes": 4, "type_bicing": 2, "electrical_bikes": 4, "mechanical_bikes": 0, "status": 1, "disponibilidad": 25, "icon": "/modules/custom/mapa_disponibilitat/assets/icons/ubicacio-25.png", "transition_start": "", "transition_end": ""}, {"id": "327", "type": "BIKE", "latitude": 41.405, "longitude": 2.13453, "streetName": "C/ REUS, 23", "streetNumber": "", "slots": 22, "bikes": 0, "type_bicing": 2, "electrical_bikes": 0, "mechanical_bikes": 0, "status": 1, "disponibilidad": 0, "icon": "/modules/custom/mapa_disponibilitat/assets/icons/ubicacio-0.png", "transition_start": "", "transition_end": ""}, {"id": "326", "type": "BIKE", "latitude": 41.407384, "longitude": 2.1383, "streetName": "C/ BALMES, 409", "streetNumber": "", "slots": 31, "bikes": 1, "type_bicing": 2, "electrical_bikes": 1, "mechanical_bikes": 0, "status": 1, "disponibilidad": 25, "icon": "/modules/custom/mapa_disponibilitat/assets/icons/ubicacio-25.png", "transition_start": "", "transition_end": ""}, {"id": "325", "type": "BIKE", "latitude": 41.39493, "longitude": 2.130325, "streetName": "C/ ALT DE GIRONELLA, 13", "streetNumber": "", "slots": 22, "bikes": 0, "type_bicing": 2, "electrical_bikes": 0, "mechanical_bikes": 0, "status": 1, "disponibilidad": 0, "icon": "/modules/custom/mapa_disponibilitat/assets/icons/ubicacio-0.png", "transition_start": "", "transition_end": ""}, {"id": "324", "type": "BIKE", "latitude": 41.396938, "longitude": 2.136258, "streetName": "C/ REINA VICTORIA, 31", "streetNumber": "", "slots": 26, "bikes": 0, "type_bicing": 2, "electrical_bikes": 0, "mechanical_bikes": 0, "status": 1, "disponibilidad": 0, "icon": "/modules/custom/mapa_disponibilitat/assets/icons/ubicacio-0.png", "transition_start": "", "transition_end": ""}, {"id": "323", "type": "BIKE", "latitude": 41.397996, "longitude": 2.138717, "streetName": "C/ VALLMAJOR, 13", "streetNumber": "", "slots": 27, "bikes": 0, "type_bicing": 2, "electrical_bikes": 0, "mechanical_bikes": 0, "status": 1, "disponibilidad": 0, "icon": "/modules/custom/mapa_disponibilitat/assets/icons/ubicacio-0.png", "transition_start": "", "transition_end": ""}, {"id": "322", "type": "BIKE", "latitude": 41.400977, "longitude": 2.13907, "streetName": "C/ SANTAL\u00d3, 165", "streetNumber": "", "slots": 24, "bikes": 0, "type_bicing": 2, "electrical_bikes": 0, "mechanical_bikes": 0, "status": 1, "disponibilidad": 0, "icon": "/modules/custom/mapa_disponibilitat/assets/icons/ubicacio-0.png", "transition_start": "", "transition_end": ""}, {"id": "321", "type": "BIKE", "latitude": 41.403054, "longitude": 2.144549, "streetName": "C/ SANT HERMENEGILD, 30", "streetNumber": "", "slots": 26, "bikes": 1, "type_bicing": 2, "electrical_bikes": 1, "mechanical_bikes": 0, "status": 1, "disponibilidad": 25, "icon": "/modules/custom/mapa_disponibilitat/assets/icons/ubicacio-25.png", "transition_start": "", "transition_end": ""}, {"id": "320", "type": "BIKE", "latitude": 41.401116, "longitude": 2.147953, "streetName": "V\u00cdA AUGUSTA, 109", "streetNumber": "", "slots": 26, "bikes": 0, "type_bicing": 2, "electrical_bikes": 0, "mechanical_bikes": 0, "status": 1, "disponibilidad": 0, "icon": "/modules/custom/mapa_disponibilitat/assets/icons/ubicacio-0.png", "transition_start": "", "transition_end": ""}, {"id": "319", "type": "BIKE", "latitude": 41.393713, "longitude": 2.145584, "streetName": "C/ SAGU\u00c9S, 1", "streetNumber": "", "slots": 27, "bikes": 1, "type_bicing": 2, "electrical_bikes": 1, "mechanical_bikes": 0, "status": 1, "disponibilidad": 25, "icon": "/modules/custom/mapa_disponibilitat/assets/icons/ubicacio-25.png", "transition_start": "", "transition_end": ""}, {"id": "318", "type": "BIKE", "latitude": 41.413406, "longitude": 2.171331, "streetName": "C/ CARTAGENA, 368", "streetNumber": "", "slots": 26, "bikes": 0, "type_bicing": 2, "electrical_bikes": 0, "mechanical_bikes": 0, "status": 1, "disponibilidad": 0, "icon": "/modules/custom/mapa_disponibilitat/assets/icons/ubicacio-0.png", "transition_start": "", "transition_end": ""}, {"id": "317", "type": "BIKE", "latitude": 41.425566, "longitude": 2.200693, "streetName": "RAMBLA DE PRIM, 256", "streetNumber": "", "slots": 3, "bikes": 22, "type_bicing": 2, "electrical_bikes": 0, "mechanical_bikes": 22, "status": 1, "disponibilidad": 75, "icon": "/modules/custom/mapa_disponibilitat/assets/icons/ubicacio-75.png", "transition_start": "", "transition_end": ""}, {"id": "316", "type": "BIKE", "latitude": 41.4222743, "longitude": 2.1984029, "streetName": "C/ CANT\u00c0BRIA, 55", "streetNumber": "", "slots": 2, "bikes": 24, "type_bicing": 2, "electrical_bikes": 0, "mechanical_bikes": 24, "status": 1, "disponibilidad": 75, "icon": "/modules/custom/mapa_disponibilitat/assets/icons/ubicacio-75.png", "transition_start": "", "transition_end": ""}, {"id": "315", "type": "BIKE", "latitude": 41.415617, "longitude": 2.181966, "streetName": "C/ DEL GUINARD\u00d3, 32-38", "streetNumber": "", "slots": 19, "bikes": 4, "type_bicing": 2, "electrical_bikes": 1, "mechanical_bikes": 3, "status": 1, "disponibilidad": 25, "icon": "/modules/custom/mapa_disponibilitat/assets/icons/ubicacio-25.png", "transition_start": "", "transition_end": ""}, {"id": "314", "type": "BIKE", "latitude": 41.37836, "longitude": 2.129737, "streetName": "RAMBLA DEL BRASIL, 44", "streetNumber": "", "slots": 16, "bikes": 8, "type_bicing": 2, "electrical_bikes": 1, "mechanical_bikes": 7, "status": 1, "disponibilidad": 25, "icon": "/modules/custom/mapa_disponibilitat/assets/icons/ubicacio-25.png", "transition_start": "", "transition_end": ""}, {"id": "313", "type": "BIKE", "latitude": 41.375366, "longitude": 2.129847, "streetName": "C/ FELIU DE CASANOVA, 1", "streetNumber": "", "slots": 7, "bikes": 20, "type_bicing": 2, "electrical_bikes": 3, "mechanical_bikes": 17, "status": 1, "disponibilidad": 75, "icon": "/modules/custom/mapa_disponibilitat/assets/icons/ubicacio-75.png", "transition_start": "", "transition_end": ""}, {"id": "312", "type": "BIKE", "latitude": 41.379046, "longitude": 2.123253, "streetName": "C/ ARIZALA, 77", "streetNumber": "", "slots": 32, "bikes": 4, "type_bicing": 2, "electrical_bikes": 0, "mechanical_bikes": 4, "status": 1, "disponibilidad": 25, "icon": "/modules/custom/mapa_disponibilitat/assets/icons/ubicacio-25.png", "transition_start": "", "transition_end": ""}, {"id": "311", "type": "BIKE", "latitude": "41.378638", "longitude": "2.120393", "streetName": "Gallego-Ar\u00edstides Maillol 2", "streetNumber": "", "slots": 24, "bikes": 0, "type_bicing": 2, "electrical_bikes": 0, "mechanical_bikes": 0, "status": 0, "disponibilidad": 0, "icon": "/modules/custom/mapa_disponibilitat/assets/icons/ubicacio3.png", "transition_start": "", "transition_end": ""}, {"id": "310", "type": "BIKE", "latitude": 41.381223, "longitude": 2.119077, "streetName": "C/ JOSEP SAMITIER / JOAN XXIII", "streetNumber": "", "slots": 26, "bikes": 0, "type_bicing": 2, "electrical_bikes": 0, "mechanical_bikes": 0, "status": 1, "disponibilidad": 0, "icon": "/modules/custom/mapa_disponibilitat/assets/icons/ubicacio-0.png", "transition_start": "", "transition_end": ""}, {"id": "309", "type": "BIKE", "latitude": 41.37674, "longitude": 2.116973, "streetName": "C/ SANT RAMON NONAT,  26", "streetNumber": "", "slots": 15, "bikes": 4, "type_bicing": 2, "electrical_bikes": 2, "mechanical_bikes": 2, "status": 1, "disponibilidad": 25, "icon": "/modules/custom/mapa_disponibilitat/assets/icons/ubicacio-25.png", "transition_start": "", "transition_end": ""}, {"id": "308", "type": "BIKE", "latitude": 41.376788, "longitude": 2.113864, "streetName": "C/ CARDENAL REIG, 11", "streetNumber": "", "slots": 21, "bikes": 6, "type_bicing": 2, "electrical_bikes": 1, "mechanical_bikes": 5, "status": 1, "disponibilidad": 25, "icon": "/modules/custom/mapa_disponibilitat/assets/icons/ubicacio-25.png", "transition_start": "", "transition_end": ""}, {"id": "307", "type": "BIKE", "latitude": 41.379135, "longitude": 2.113505, "streetName": "C/ PINTOR RIBALTA / AV. XILE", "streetNumber": "", "slots": 31, "bikes": 1, "type_bicing": 2, "electrical_bikes": 0, "mechanical_bikes": 1, "status": 1, "disponibilidad": 25, "icon": "/modules/custom/mapa_disponibilitat/assets/icons/ubicacio-25.png", "transition_start": "", "transition_end": ""}, {"id": "306", "type": "BIKE", "latitude": 41.385465, "longitude": 2.122912, "streetName": "C/ DOCTOR SALVADOR CARDENAL, 1-5", "streetNumber": "", "slots": 31, "bikes": 0, "type_bicing": 2, "electrical_bikes": 0, "mechanical_bikes": 0, "status": 1, "disponibilidad": 0, "icon": "/modules/custom/mapa_disponibilitat/assets/icons/ubicacio-0.png", "transition_start": "", "transition_end": ""}, {"id": "305", "type": "BIKE", "latitude": 41.387498, "longitude": 2.123637, "streetName": "AV. DIAGONAL, 680", "streetNumber": "", "slots": 26, "bikes": 0, "type_bicing": 2, "electrical_bikes": 0, "mechanical_bikes": 0, "status": 1, "disponibilidad": 0, "icon": "/modules/custom/mapa_disponibilitat/assets/icons/ubicacio-0.png", "transition_start": "", "transition_end": ""}, {"id": "304", "type": "BIKE", "latitude": 41.390208, "longitude": 2.121029, "streetName": "PG. MANUEL GIRONA, 7", "streetNumber": "", "slots": 17, "bikes": 10, "type_bicing": 2, "electrical_bikes": 0, "mechanical_bikes": 10, "status": 1, "disponibilidad": 25, "icon": "/modules/custom/mapa_disponibilitat/assets/icons/ubicacio-25.png", "transition_start": "", "transition_end": ""}, {"id": "303", "type": "BIKE", "latitude": 41.393341, "longitude": 2.115076, "streetName": "C/ CAVALLERS, 67", "streetNumber": "", "slots": 27, "bikes": 0, "type_bicing": 2, "electrical_bikes": 0, "mechanical_bikes": 0, "status": 1, "disponibilidad": 0, "icon": "/modules/custom/mapa_disponibilitat/assets/icons/ubicacio-0.png", "transition_start": "", "transition_end": ""}, {"id": "302", "type": "BIKE", "latitude": 41.39065, "longitude": 2.111615, "streetName": "C/ CAVALLERS, 41", "streetNumber": "", "slots": 31, "bikes": 0, "type_bicing": 2, "electrical_bikes": 0, "mechanical_bikes": 0, "status": 1, "disponibilidad": 0, "icon": "/modules/custom/mapa_disponibilitat/assets/icons/ubicacio-0.png", "transition_start": "", "transition_end": ""}, {"id": "301", "type": "BIKE", "latitude": 41.437053, "longitude": 2.169644, "streetName": "C/ MARIE CURIE, 8-14", "streetNumber": "", "slots": 17, "bikes": 10, "type_bicing": 2, "electrical_bikes": 4, "mechanical_bikes": 6, "status": 1, "disponibilidad": 25, "icon": "/modules/custom/mapa_disponibilitat/assets/icons/ubicacio-25.png", "transition_start": "", "transition_end": ""}, {"id": "300", "type": "BIKE", "latitude": 41.431593, "longitude": 2.176909, "streetName": "C/ DE MALADETA, 1", "streetNumber": "", "slots": 13, "bikes": 3, "type_bicing": 2, "electrical_bikes": 2, "mechanical_bikes": 1, "status": 1, "disponibilidad": 25, "icon": "/modules/custom/mapa_disponibilitat/assets/icons/ubicacio-25.png", "transition_start": "", "transition_end": ""}, {"id": "299", "type": "BIKE", "latitude": 41.433965, "longitude": 2.175199, "streetName": "C/ DE L'ESCULTOR ORD\u00d3\u00d1EZ, 55", "streetNumber": "", "slots": 9, "bikes": 18, "type_bicing": 2, "electrical_bikes": 2, "mechanical_bikes": 16, "status": 1, "disponibilidad": 75, "icon": "/modules/custom/mapa_disponibilitat/assets/icons/ubicacio-75.png", "transition_start": "", "transition_end": ""}, {"id": "298", "type": "BIKE", "latitude": 41.43463, "longitude": 2.181747, "streetName": "C/ ANDREU NIN, 22", "streetNumber": "", "slots": 23, "bikes": 7, "type_bicing": 2, "electrical_bikes": 0, "mechanical_bikes": 7, "status": 1, "disponibilidad": 25, "icon": "/modules/custom/mapa_disponibilitat/assets/icons/ubicacio-25.png", "transition_start": "", "transition_end": ""}, {"id": "297", "type": "BIKE", "latitude": 41.438864, "longitude": 2.176822, "streetName": "C/ TUR\u00d3 BLAU, 1-3", "streetNumber": "", "slots": 11, "bikes": 13, "type_bicing": 2, "electrical_bikes": 1, "mechanical_bikes": 12, "status": 1, "disponibilidad": 50, "icon": "/modules/custom/mapa_disponibilitat/assets/icons/ubicacio-50.png", "transition_start": "", "transition_end": ""}, {"id": "296", "type": "BIKE", "latitude": 41.436505, "longitude": 2.183877, "streetName": "C/ DE ROSSELL\u00d3 I PORCEL, 1/AV.MERIDIANA", "streetNumber": "", "slots": 18, "bikes": 14, "type_bicing": 2, "electrical_bikes": 0, "mechanical_bikes": 14, "status": 1, "disponibilidad": 50, "icon": "/modules/custom/mapa_disponibilitat/assets/icons/ubicacio-50.png", "transition_start": "", "transition_end": ""}, {"id": "295", "type": "BIKE", "latitude": 41.43345, "longitude": 2.1715, "streetName": "C/ SANT ISCLE, 60", "streetNumber": "", "slots": 26, "bikes": 1, "type_bicing": 2, "electrical_bikes": 1, "mechanical_bikes": 0, "status": 1, "disponibilidad": 25, "icon": "/modules/custom/mapa_disponibilitat/assets/icons/ubicacio-25.png", "transition_start": "", "transition_end": ""}, {"id": "294", "type": "BIKE", "latitude": 41.436373, "longitude": 2.170678, "streetName": "SEU DEL DISTRICTE (NOU BARRIS)", "streetNumber": "", "slots": 12, "bikes": 12, "type_bicing": 2, "electrical_bikes": 1, "mechanical_bikes": 11, "status": 1, "disponibilidad": 50, "icon": "/modules/custom/mapa_disponibilitat/assets/icons/ubicacio-50.png", "transition_start": "", "transition_end": ""}, {"id": "293", "type": "BIKE", "latitude": 41.428388, "longitude": 2.163101, "streetName": "C/ GRANOLLERS, 1", "streetNumber": "", "slots": 21, "bikes": 3, "type_bicing": 2, "electrical_bikes": 2, "mechanical_bikes": 1, "status": 1, "disponibilidad": 25, "icon": "/modules/custom/mapa_disponibilitat/assets/icons/ubicacio-25.png", "transition_start": "", "transition_end": ""}, {"id": "292", "type": "BIKE", "latitude": 41.430036, "longitude": 2.171974, "streetName": "C/ AMILCAR, 1", "streetNumber": "", "slots": 11, "bikes": 4, "type_bicing": 2, "electrical_bikes": 2, "mechanical_bikes": 2, "status": 1, "disponibilidad": 25, "icon": "/modules/custom/mapa_disponibilitat/assets/icons/ubicacio-25.png", "transition_start": "", "transition_end": ""}, {"id": "291", "type": "BIKE", "latitude": 41.425897, "longitude": 2.17505, "streetName": "C/ CUBELLES, 2", "streetNumber": "", "slots": 23, "bikes": 3, "type_bicing": 2, "electrical_bikes": 2, "mechanical_bikes": 1, "status": 1, "disponibilidad": 25, "icon": "/modules/custom/mapa_disponibilitat/assets/icons/ubicacio-25.png", "transition_start": "", "transition_end": ""}, {"id": "290", "type": "BIKE", "latitude": 41.437094, "longitude": 2.174047, "streetName": "PL. DELS JARDINS D'ALF\u00c0BIA, 1", "streetNumber": "", "slots": 15, "bikes": 2, "type_bicing": 2, "electrical_bikes": 1, "mechanical_bikes": 1, "status": 1, "disponibilidad": 25, "icon": "/modules/custom/mapa_disponibilitat/assets/icons/ubicacio-25.png", "transition_start": "", "transition_end": ""}, {"id": "289", "type": "BIKE", "latitude": 41.416828, "longitude": 2.191022, "streetName": "C/ M\u00daRCIA, 64", "streetNumber": "", "slots": 0, "bikes": 26, "type_bicing": 2, "electrical_bikes": 1, "mechanical_bikes": 25, "status": 1, "disponibilidad": 100, "icon": "/modules/custom/mapa_disponibilitat/assets/icons/ubicacio-100.png", "transition_start": "", "transition_end": ""}, {"id": "288", "type": "BIKE", "latitude": 41.429636, "longitude": 2.174487, "streetName": "PL. VIRREI AMAT", "streetNumber": "", "slots": 27, "bikes": 0, "type_bicing": 2, "electrical_bikes": 0, "mechanical_bikes": 0, "status": 1, "disponibilidad": 0, "icon": "/modules/custom/mapa_disponibilitat/assets/icons/ubicacio-0.png", "transition_start": "", "transition_end": ""}, {"id": "287", "type": "BIKE", "latitude": 41.389171, "longitude": 2.168113, "streetName": "GRAN VIA DE LES CORTS CATALANES, 632", "streetNumber": "", "slots": 10, "bikes": 5, "type_bicing": 2, "electrical_bikes": 1, "mechanical_bikes": 4, "status": 1, "disponibilidad": 25, "icon": "/modules/custom/mapa_disponibilitat/assets/icons/ubicacio-25.png", "transition_start": "", "transition_end": ""}, {"id": "286", "type": "BIKE", "latitude": 41.403103, "longitude": 2.191428, "streetName": "C/ BOL\u00cdVIA, 76", "streetNumber": "", "slots": 10, "bikes": 5, "type_bicing": 2, "electrical_bikes": 1, "mechanical_bikes": 4, "status": 1, "disponibilidad": 25, "icon": "/modules/custom/mapa_disponibilitat/assets/icons/ubicacio-25.png", "transition_start": "", "transition_end": ""}, {"id": "285", "type": "BIKE", "latitude": 41.436708, "longitude": 2.186059, "streetName": "C/ MALATS, 98-100", "streetNumber": "", "slots": 2, "bikes": 21, "type_bicing": 2, "electrical_bikes": 2, "mechanical_bikes": 19, "status": 1, "disponibilidad": 75, "icon": "/modules/custom/mapa_disponibilitat/assets/icons/ubicacio-75.png", "transition_start": "", "transition_end": ""}, {"id": "284", "type": "BIKE", "latitude": 41.389503, "longitude": 2.131454, "streetName": "AV. DIAGONAL, 652", "streetNumber": "", "slots": 27, "bikes": 0, "type_bicing": 2, "electrical_bikes": 0, "mechanical_bikes": 0, "status": 1, "disponibilidad": 0, "icon": "/modules/custom/mapa_disponibilitat/assets/icons/ubicacio-0.png", "transition_start": "", "transition_end": ""}, {"id": "283", "type": "BIKE", "latitude": 41.42968, "longitude": 2.16157, "streetName": "C/ FULTON, 1", "streetNumber": "", "slots": 12, "bikes": 4, "type_bicing": 2, "electrical_bikes": 2, "mechanical_bikes": 2, "status": 1, "disponibilidad": 25, "icon": "/modules/custom/mapa_disponibilitat/assets/icons/ubicacio-25.png", "transition_start": "", "transition_end": ""}, {"id": "282", "type": "BIKE", "latitude": 41.427561, "longitude": 2.166022, "streetName": "PG. FONT D\u00b4EN- FARGAS, 1", "streetNumber": "", "slots": 25, "bikes": 1, "type_bicing": 2, "electrical_bikes": 0, "mechanical_bikes": 1, "status": 1, "disponibilidad": 25, "icon": "/modules/custom/mapa_disponibilitat/assets/icons/ubicacio-25.png", "transition_start": "", "transition_end": ""}, {"id": "281", "type": "BIKE", "latitude": 41.418088, "longitude": 2.176313, "streetName": "C/ D'ESCORNALBOU, 51", "streetNumber": "", "slots": 24, "bikes": 0, "type_bicing": 2, "electrical_bikes": 0, "mechanical_bikes": 0, "status": 1, "disponibilidad": 0, "icon": "/modules/custom/mapa_disponibilitat/assets/icons/ubicacio-0.png", "transition_start": "", "transition_end": ""}, {"id": "280", "type": "BIKE", "latitude": 41.413986, "longitude": 2.177842, "streetName": "C/ SANT ANTONI M\u00aa CLARET, 290-296", "streetNumber": "", "slots": 4, "bikes": 23, "type_bicing": 2, "electrical_bikes": 1, "mechanical_bikes": 22, "status": 1, "disponibilidad": 75, "icon": "/modules/custom/mapa_disponibilitat/assets/icons/ubicacio-75.png", "transition_start": "", "transition_end": ""}, {"id": "279", "type": "BIKE", "latitude": 41.415951, "longitude": 2.174564, "streetName": "C/ MAS CASANOVAS, 137", "streetNumber": "", "slots": 25, "bikes": 2, "type_bicing": 2, "electrical_bikes": 1, "mechanical_bikes": 1, "status": 1, "disponibilidad": 25, "icon": "/modules/custom/mapa_disponibilitat/assets/icons/ubicacio-25.png", "transition_start": "", "transition_end": ""}, {"id": "278", "type": "BIKE", "latitude": 41.409815, "longitude": 2.171621, "streetName": "TRAVESSERA DE GR\u00c0CIA, 368", "streetNumber": "", "slots": 24, "bikes": 3, "type_bicing": 2, "electrical_bikes": 1, "mechanical_bikes": 2, "status": 1, "disponibilidad": 25, "icon": "/modules/custom/mapa_disponibilitat/assets/icons/ubicacio-25.png", "transition_start": "", "transition_end": ""}, {"id": "277", "type": "BIKE", "latitude": 41.408284, "longitude": 2.16905, "streetName": "TRAVESSERA DE GR\u00c0CIA, 328", "streetNumber": "", "slots": 23, "bikes": 4, "type_bicing": 2, "electrical_bikes": 2, "mechanical_bikes": 2, "status": 1, "disponibilidad": 25, "icon": "/modules/custom/mapa_disponibilitat/assets/icons/ubicacio-25.png", "transition_start": "", "transition_end": ""}, {"id": "276", "type": "BIKE", "latitude": 41.412163, "longitude": 2.165275, "streetName": "PLA\u00c7A ALFONS X EL SAVI / RONDA DEL GUINARDO", "streetNumber": "", "slots": 21, "bikes": 3, "type_bicing": 2, "electrical_bikes": 3, "mechanical_bikes": 0, "status": 1, "disponibilidad": 25, "icon": "/modules/custom/mapa_disponibilitat/assets/icons/ubicacio-25.png", "transition_start": "", "transition_end": ""}, {"id": "275", "type": "BIKE", "latitude": 41.430693, "longitude": 2.182225, "streetName": "AV. RIO DE JANEIRO, 3", "streetNumber": "", "slots": 30, "bikes": 2, "type_bicing": 2, "electrical_bikes": 0, "mechanical_bikes": 2, "status": 1, "disponibilidad": 25, "icon": "/modules/custom/mapa_disponibilitat/assets/icons/ubicacio-25.png", "transition_start": "", "transition_end": ""}, {"id": "274", "type": "BIKE", "latitude": 41.430092, "longitude": 2.184898, "streetName": "RAMBLA FABRA I PUIG, 67", "streetNumber": "", "slots": 19, "bikes": 13, "type_bicing": 2, "electrical_bikes": 0, "mechanical_bikes": 13, "status": 1, "disponibilidad": 50, "icon": "/modules/custom/mapa_disponibilitat/assets/icons/ubicacio-50.png", "transition_start": "", "transition_end": ""}, {"id": "273", "type": "BIKE", "latitude": 41.430404, "longitude": 2.183382, "streetName": "AV. MERIDIANA/PG. FABRA I PUIG (SANT ANDREU)", "streetNumber": "", "slots": 36, "bikes": 0, "type_bicing": 2, "electrical_bikes": 0, "mechanical_bikes": 0, "status": 1, "disponibilidad": 0, "icon": "/modules/custom/mapa_disponibilitat/assets/icons/ubicacio-0.png", "transition_start": "", "transition_end": ""}, {"id": "272", "type": "BIKE", "latitude": 41.432559, "longitude": 2.184264, "streetName": "C/ CONCEPCI\u00d3 ARENAL, 281", "streetNumber": "", "slots": 22, "bikes": 5, "type_bicing": 2, "electrical_bikes": 0, "mechanical_bikes": 5, "status": 1, "disponibilidad": 25, "icon": "/modules/custom/mapa_disponibilitat/assets/icons/ubicacio-25.png", "transition_start": "", "transition_end": ""}, {"id": "271", "type": "BIKE", "latitude": 41.450634, "longitude": 2.192335, "streetName": "VIA BARCINO, 69", "streetNumber": "", "slots": 6, "bikes": 15, "type_bicing": 2, "electrical_bikes": 0, "mechanical_bikes": 15, "status": 1, "disponibilidad": 75, "icon": "/modules/custom/mapa_disponibilitat/assets/icons/ubicacio-75.png", "transition_start": "", "transition_end": ""}, {"id": "270", "type": "BIKE", "latitude": 41.448628, "longitude": 2.18976, "streetName": "270 - CRTA. DE RIBES, 77 (TRINITAT VELLA)", "streetNumber": "", "slots": 20, "bikes": 5, "type_bicing": 2, "electrical_bikes": 0, "mechanical_bikes": 5, "status": 1, "disponibilidad": 25, "icon": "/modules/custom/mapa_disponibilitat/assets/icons/ubicacio-25.png", "transition_start": "", "transition_end": ""}, {"id": "269", "type": "BIKE", "latitude": 41.448128, "longitude": 2.192826, "streetName": "VIA BARCINO, 121", "streetNumber": "", "slots": 19, "bikes": 4, "type_bicing": 2, "electrical_bikes": 0, "mechanical_bikes": 4, "status": 1, "disponibilidad": 25, "icon": "/modules/custom/mapa_disponibilitat/assets/icons/ubicacio-25.png", "transition_start": "", "transition_end": ""}, {"id": "268", "type": "BIKE", "latitude": 41.445705, "longitude": 2.192892, "streetName": "C/ FERNANDO PESSOA, 72", "streetNumber": "", "slots": 1, "bikes": 26, "type_bicing": 2, "electrical_bikes": 0, "mechanical_bikes": 26, "status": 1, "disponibilidad": 75, "icon": "/modules/custom/mapa_disponibilitat/assets/icons/ubicacio-75.png", "transition_start": "", "transition_end": ""}, {"id": "267", "type": "BIKE", "latitude": 41.443395, "longitude": 2.190623, "streetName": "PG. TORRAS I BAGES, 129", "streetNumber": "", "slots": 8, "bikes": 16, "type_bicing": 2, "electrical_bikes": 1, "mechanical_bikes": 15, "status": 1, "disponibilidad": 75, "icon": "/modules/custom/mapa_disponibilitat/assets/icons/ubicacio-75.png", "transition_start": "", "transition_end": ""}, {"id": "266", "type": "BIKE", "latitude": 41.426841, "longitude": 2.184238, "streetName": "C/ CONCEPCI\u00d3 ARENAL, 176", "streetNumber": "", "slots": 22, "bikes": 5, "type_bicing": 2, "electrical_bikes": 0, "mechanical_bikes": 5, "status": 1, "disponibilidad": 25, "icon": "/modules/custom/mapa_disponibilitat/assets/icons/ubicacio-25.png", "transition_start": "", "transition_end": ""}, {"id": "265", "type": "BIKE", "latitude": 41.385467, "longitude": 2.158532, "streetName": "C/ CASANOVAS, 67", "streetNumber": "", "slots": 5, "bikes": 22, "type_bicing": 2, "electrical_bikes": 1, "mechanical_bikes": 21, "status": 1, "disponibilidad": 75, "icon": "/modules/custom/mapa_disponibilitat/assets/icons/ubicacio-75.png", "transition_start": "", "transition_end": ""}, {"id": "264", "type": "BIKE", "latitude": 41.439949, "longitude": 2.197033, "streetName": "C/REP\u00daBLICA DOMINICANA,25(CENTRE COMERCIAL)", "streetNumber": "", "slots": 9, "bikes": 23, "type_bicing": 2, "electrical_bikes": 0, "mechanical_bikes": 23, "status": 1, "disponibilidad": 75, "icon": "/modules/custom/mapa_disponibilitat/assets/icons/ubicacio-75.png", "transition_start": "", "transition_end": ""}, {"id": "263", "type": "BIKE", "latitude": 41.437814, "longitude": 2.191039, "streetName": "PG. TORRAS I BAGES, 29", "streetNumber": "", "slots": 4, "bikes": 16, "type_bicing": 2, "electrical_bikes": 1, "mechanical_bikes": 15, "status": 1, "disponibilidad": 75, "icon": "/modules/custom/mapa_disponibilitat/assets/icons/ubicacio-75.png", "transition_start": "", "transition_end": ""}, {"id": "262", "type": "BIKE", "latitude": 41.379821, "longitude": 2.152496, "streetName": "C/ ROCAFORT, 103", "streetNumber": "", "slots": 16, "bikes": 16, "type_bicing": 2, "electrical_bikes": 3, "mechanical_bikes": 13, "status": 1, "disponibilidad": 50, "icon": "/modules/custom/mapa_disponibilitat/assets/icons/ubicacio-50.png", "transition_start": "", "transition_end": ""}, {"id": "261", "type": "BIKE", "latitude": 41.382206, "longitude": 2.160644, "streetName": "C/ VILLARROEL, 39", "streetNumber": "", "slots": 0, "bikes": 32, "type_bicing": 2, "electrical_bikes": 0, "mechanical_bikes": 32, "status": 1, "disponibilidad": 100, "icon": "/modules/custom/mapa_disponibilitat/assets/icons/ubicacio-100.png", "transition_start": "", "transition_end": ""}, {"id": "260", "type": "BIKE", "latitude": 41.4356947, "longitude": 2.1920248, "streetName": "CARRER DEL CINCA, 7", "streetNumber": "", "slots": 20, "bikes": 6, "type_bicing": 2, "electrical_bikes": 0, "mechanical_bikes": 6, "status": 1, "disponibilidad": 25, "icon": "/modules/custom/mapa_disponibilitat/assets/icons/ubicacio-25.png", "transition_start": "", "transition_end": ""}, {"id": "259", "type": "BIKE", "latitude": 41.439109, "longitude": 2.185818, "streetName": "C/ DE BARTRINA, 14", "streetNumber": "", "slots": 2, "bikes": 22, "type_bicing": 2, "electrical_bikes": 1, "mechanical_bikes": 21, "status": 1, "disponibilidad": 75, "icon": "/modules/custom/mapa_disponibilitat/assets/icons/ubicacio-75.png", "transition_start": "", "transition_end": ""}, {"id": "258", "type": "BIKE", "latitude": 41.442167, "longitude": 2.193032, "streetName": "C/ FERNANDO PESSOA, 41", "streetNumber": "", "slots": 4, "bikes": 23, "type_bicing": 2, "electrical_bikes": 0, "mechanical_bikes": 23, "status": 1, "disponibilidad": 75, "icon": "/modules/custom/mapa_disponibilitat/assets/icons/ubicacio-75.png", "transition_start": "", "transition_end": ""}, {"id": "257", "type": "BIKE", "latitude": 41.433897, "longitude": 2.189614, "streetName": "C/ SANT ADRI\u00c0, 2-8", "streetNumber": "", "slots": 11, "bikes": 13, "type_bicing": 2, "electrical_bikes": 0, "mechanical_bikes": 13, "status": 1, "disponibilidad": 50, "icon": "/modules/custom/mapa_disponibilitat/assets/icons/ubicacio-50.png", "transition_start": "", "transition_end": ""}, {"id": "256", "type": "BIKE", "latitude": 41.43608, "longitude": 2.189542, "streetName": "C/ MALATS, 28-30", "streetNumber": "", "slots": 3, "bikes": 29, "type_bicing": 2, "electrical_bikes": 0, "mechanical_bikes": 29, "status": 1, "disponibilidad": 75, "icon": "/modules/custom/mapa_disponibilitat/assets/icons/ubicacio-75.png", "transition_start": "", "transition_end": ""}, {"id": "255", "type": "BIKE", "latitude": 41.431183, "longitude": 2.185852, "streetName": "C/ IRLANDA, 11-21", "streetNumber": "", "slots": 15, "bikes": 3, "type_bicing": 2, "electrical_bikes": 0, "mechanical_bikes": 3, "status": 1, "disponibilidad": 25, "icon": "/modules/custom/mapa_disponibilitat/assets/icons/ubicacio-25.png", "transition_start": "", "transition_end": ""}, {"id": "254", "type": "BIKE", "latitude": 41.429985, "longitude": 2.190163, "streetName": "RAMBLA DE L'ONZE DE SETEMBRE, 69", "streetNumber": "", "slots": 1, "bikes": 25, "type_bicing": 2, "electrical_bikes": 1, "mechanical_bikes": 24, "status": 1, "disponibilidad": 75, "icon": "/modules/custom/mapa_disponibilitat/assets/icons/ubicacio-75.png", "transition_start": "", "transition_end": ""}, {"id": "253", "type": "BIKE", "latitude": 41.429977, "longitude": 2.191821, "streetName": "C/ ONZE DE SETEMBRE, 37-39", "streetNumber": "", "slots": 3, "bikes": 23, "type_bicing": 2, "electrical_bikes": 0, "mechanical_bikes": 23, "status": 1, "disponibilidad": 75, "icon": "/modules/custom/mapa_disponibilitat/assets/icons/ubicacio-75.png", "transition_start": "", "transition_end": ""}, {"id": "252", "type": "BIKE", "latitude": 41.429953, "longitude": 2.193185, "streetName": "RAMBLA DE L'ONZE DE SETEMBRE, 31", "streetNumber": "", "slots": 6, "bikes": 26, "type_bicing": 2, "electrical_bikes": 0, "mechanical_bikes": 26, "status": 1, "disponibilidad": 75, "icon": "/modules/custom/mapa_disponibilitat/assets/icons/ubicacio-75.png", "transition_start": "", "transition_end": ""}, {"id": "251", "type": "BIKE", "latitude": 41.425405, "longitude": 2.185226, "streetName": "C/ CARDENAL TEDESCHINI, 13", "streetNumber": "", "slots": 25, "bikes": 6, "type_bicing": 2, "electrical_bikes": 0, "mechanical_bikes": 6, "status": 1, "disponibilidad": 25, "icon": "/modules/custom/mapa_disponibilitat/assets/icons/ubicacio-25.png", "transition_start": "", "transition_end": ""}, {"id": "250", "type": "BIKE", "latitude": 41.425905, "longitude": 2.19115, "streetName": "C/ PORTUGAL, 3", "streetNumber": "", "slots": 3, "bikes": 24, "type_bicing": 2, "electrical_bikes": 1, "mechanical_bikes": 23, "status": 1, "disponibilidad": 75, "icon": "/modules/custom/mapa_disponibilitat/assets/icons/ubicacio-75.png", "transition_start": "", "transition_end": ""}, {"id": "249", "type": "BIKE", "latitude": 41.425216, "longitude": 2.188997, "streetName": "C/ A\u00c7ORES,1-3", "streetNumber": "", "slots": 5, "bikes": 22, "type_bicing": 2, "electrical_bikes": 0, "mechanical_bikes": 22, "status": 1, "disponibilidad": 75, "icon": "/modules/custom/mapa_disponibilitat/assets/icons/ubicacio-75.png", "transition_start": "", "transition_end": ""}, {"id": "248", "type": "BIKE", "latitude": 41.418208, "longitude": 2.190374, "streetName": "C/ PAL\u00c8NCIA, 31", "streetNumber": "", "slots": 10, "bikes": 15, "type_bicing": 2, "electrical_bikes": 0, "mechanical_bikes": 15, "status": 1, "disponibilidad": 50, "icon": "/modules/custom/mapa_disponibilitat/assets/icons/ubicacio-50.png", "transition_start": "", "transition_end": ""}, {"id": "247", "type": "BIKE", "latitude": 41.421992, "longitude": 2.184806, "streetName": "C/ FELIPE II, 112", "streetNumber": "", "slots": 22, "bikes": 5, "type_bicing": 2, "electrical_bikes": 0, "mechanical_bikes": 5, "status": 1, "disponibilidad": 25, "icon": "/modules/custom/mapa_disponibilitat/assets/icons/ubicacio-25.png", "transition_start": "", "transition_end": ""}, {"id": "246", "type": "BIKE", "latitude": 41.422844, "longitude": 2.186637, "streetName": "C/ GARCILASO, 77", "streetNumber": "", "slots": 15, "bikes": 0, "type_bicing": 2, "electrical_bikes": 0, "mechanical_bikes": 0, "status": 1, "disponibilidad": 0, "icon": "/modules/custom/mapa_disponibilitat/assets/icons/ubicacio-0.png", "transition_start": "", "transition_end": ""}, {"id": "244", "type": "BIKE", "latitude": 41.426896, "longitude": 2.178511, "streetName": "C/ FELIP II, 214", "streetNumber": "", "slots": 23, "bikes": 3, "type_bicing": 2, "electrical_bikes": 0, "mechanical_bikes": 3, "status": 1, "disponibilidad": 25, "icon": "/modules/custom/mapa_disponibilitat/assets/icons/ubicacio-25.png", "transition_start": "", "transition_end": ""}, {"id": "243", "type": "BIKE", "latitude": 41.423939, "longitude": 2.181298, "streetName": "C/ ALEXANDRE GAL\u00cd, 1-5", "streetNumber": "", "slots": 22, "bikes": 5, "type_bicing": 2, "electrical_bikes": 0, "mechanical_bikes": 5, "status": 1, "disponibilidad": 25, "icon": "/modules/custom/mapa_disponibilitat/assets/icons/ubicacio-25.png", "transition_start": "", "transition_end": ""}, {"id": "242", "type": "BIKE", "latitude": 41.424451, "longitude": 2.177284, "streetName": "C/ RAMON ALB\u00d3, 1", "streetNumber": "", "slots": 24, "bikes": 3, "type_bicing": 2, "electrical_bikes": 1, "mechanical_bikes": 2, "status": 1, "disponibilidad": 25, "icon": "/modules/custom/mapa_disponibilitat/assets/icons/ubicacio-25.png", "transition_start": "", "transition_end": ""}, {"id": "241", "type": "BIKE", "latitude": 41.419337, "longitude": 2.180482, "streetName": "C/ TEODOR LLORENTE, 2", "streetNumber": "", "slots": 26, "bikes": 2, "type_bicing": 2, "electrical_bikes": 1, "mechanical_bikes": 1, "status": 1, "disponibilidad": 25, "icon": "/modules/custom/mapa_disponibilitat/assets/icons/ubicacio-25.png", "transition_start": "", "transition_end": ""}, {"id": "240", "type": "BIKE", "latitude": 41.417763, "longitude": 2.187558, "streetName": "C/ JOSEP ESTIVILL, 32", "streetNumber": "", "slots": 2, "bikes": 21, "type_bicing": 2, "electrical_bikes": 1, "mechanical_bikes": 20, "status": 1, "disponibilidad": 75, "icon": "/modules/custom/mapa_disponibilitat/assets/icons/ubicacio-75.png", "transition_start": "", "transition_end": ""}, {"id": "239", "type": "BIKE", "latitude": 41.417323, "longitude": 2.184534, "streetName": "C/ IND\u00daSTRIA, 329", "streetNumber": "", "slots": 8, "bikes": 15, "type_bicing": 2, "electrical_bikes": 0, "mechanical_bikes": 15, "status": 1, "disponibilidad": 75, "icon": "/modules/custom/mapa_disponibilitat/assets/icons/ubicacio-75.png", "transition_start": "", "transition_end": ""}, {"id": "238", "type": "BIKE", "latitude": 41.415684, "longitude": 2.190986, "streetName": "C/ ESPRONCEDA, 298", "streetNumber": "", "slots": 4, "bikes": 23, "type_bicing": 2, "electrical_bikes": 0, "mechanical_bikes": 23, "status": 1, "disponibilidad": 75, "icon": "/modules/custom/mapa_disponibilitat/assets/icons/ubicacio-75.png", "transition_start": "", "transition_end": ""}, {"id": "237", "type": "BIKE", "latitude": 41.372891, "longitude": 2.154471, "streetName": "C/ RIUS I TAULET, 4", "streetNumber": "", "slots": 12, "bikes": 15, "type_bicing": 2, "electrical_bikes": 0, "mechanical_bikes": 15, "status": 1, "disponibilidad": 50, "icon": "/modules/custom/mapa_disponibilitat/assets/icons/ubicacio-50.png", "transition_start": "", "transition_end": ""}, {"id": "236", "type": "BIKE", "latitude": 41.375127, "longitude": 2.152769, "streetName": "AV. PARAL.LEL, 194", "streetNumber": "", "slots": 23, "bikes": 1, "type_bicing": 2, "electrical_bikes": 0, "mechanical_bikes": 1, "status": 1, "disponibilidad": 25, "icon": "/modules/custom/mapa_disponibilitat/assets/icons/ubicacio-25.png", "transition_start": "", "transition_end": ""}, {"id": "235", "type": "BIKE", "latitude": 41.375065, "longitude": 2.165839, "streetName": "AV. PARAL.LEL, 98", "streetNumber": "", "slots": 0, "bikes": 26, "type_bicing": 2, "electrical_bikes": 0, "mechanical_bikes": 26, "status": 1, "disponibilidad": 100, "icon": "/modules/custom/mapa_disponibilitat/assets/icons/ubicacio-100.png", "transition_start": "", "transition_end": ""}, {"id": "234", "type": "BIKE", "latitude": 41.371515, "longitude": 2.162166, "streetName": "PG. DE L\u00b4EXPOSICI\u00d3, 30 /BLASCO GARAY", "streetNumber": "", "slots": 20, "bikes": 6, "type_bicing": 2, "electrical_bikes": 1, "mechanical_bikes": 5, "status": 1, "disponibilidad": 25, "icon": "/modules/custom/mapa_disponibilitat/assets/icons/ubicacio-25.png", "transition_start": "", "transition_end": ""}, {"id": "233", "type": "BIKE", "latitude": 41.371965, "longitude": 2.166871, "streetName": "C/ NOU DE LA RAMBLA, 164", "streetNumber": "", "slots": 27, "bikes": 0, "type_bicing": 2, "electrical_bikes": 0, "mechanical_bikes": 0, "status": 1, "disponibilidad": 0, "icon": "/modules/custom/mapa_disponibilitat/assets/icons/ubicacio-0.png", "transition_start": "", "transition_end": ""}, {"id": "232", "type": "BIKE", "latitude": 41.373509, "longitude": 2.171002, "streetName": "C/ VIL\u00c0 I VIL\u00c0, 45", "streetNumber": "", "slots": 1, "bikes": 24, "type_bicing": 2, "electrical_bikes": 0, "mechanical_bikes": 24, "status": 1, "disponibilidad": 75, "icon": "/modules/custom/mapa_disponibilitat/assets/icons/ubicacio-75.png", "transition_start": "", "transition_end": ""}, {"id": "231", "type": "BIKE", "latitude": 41.407202, "longitude": 2.163476, "streetName": "C/ PI I MARGALL, 38", "streetNumber": "", "slots": 11, "bikes": 13, "type_bicing": 2, "electrical_bikes": 2, "mechanical_bikes": 11, "status": 1, "disponibilidad": 50, "icon": "/modules/custom/mapa_disponibilitat/assets/icons/ubicacio-50.png", "transition_start": "", "transition_end": ""}, {"id": "230", "type": "BIKE", "latitude": 41.405986, "longitude": 2.151633, "streetName": "C/ DE NIL FABRA, 16-20", "streetNumber": "", "slots": 20, "bikes": 6, "type_bicing": 2, "electrical_bikes": 6, "mechanical_bikes": 0, "status": 1, "disponibilidad": 25, "icon": "/modules/custom/mapa_disponibilitat/assets/icons/ubicacio-25.png", "transition_start": "", "transition_end": ""}, {"id": "229", "type": "BIKE", "latitude": 41.405107, "longitude": 2.156874, "streetName": "C/ DE LA SANTACREU, 2 (PL.DE LA VIRREINA)", "streetNumber": "", "slots": 26, "bikes": 0, "type_bicing": 2, "electrical_bikes": 0, "mechanical_bikes": 0, "status": 1, "disponibilidad": 0, "icon": "/modules/custom/mapa_disponibilitat/assets/icons/ubicacio-0.png", "transition_start": "", "transition_end": ""}, {"id": "228", "type": "BIKE", "latitude": 41.40694, "longitude": 2.155794, "streetName": "PL. DEL NORD, 5", "streetNumber": "", "slots": 21, "bikes": 0, "type_bicing": 2, "electrical_bikes": 0, "mechanical_bikes": 0, "status": 1, "disponibilidad": 0, "icon": "/modules/custom/mapa_disponibilitat/assets/icons/ubicacio-0.png", "transition_start": "", "transition_end": ""}, {"id": "227", "type": "BIKE", "latitude": 41.407837, "longitude": 2.158678, "streetName": "C/ DEL TORRENT DE LES FLORS, 102", "streetNumber": "", "slots": 13, "bikes": 4, "type_bicing": 2, "electrical_bikes": 4, "mechanical_bikes": 0, "status": 1, "disponibilidad": 25, "icon": "/modules/custom/mapa_disponibilitat/assets/icons/ubicacio-25.png", "transition_start": "", "transition_end": ""}, {"id": "226", "type": "BIKE", "latitude": 41.403465, "longitude": 2.161096, "streetName": "C/ MONTMANY, 1", "streetNumber": "", "slots": 25, "bikes": 2, "type_bicing": 2, "electrical_bikes": 0, "mechanical_bikes": 2, "status": 1, "disponibilidad": 25, "icon": "/modules/custom/mapa_disponibilitat/assets/icons/ubicacio-25.png", "transition_start": "", "transition_end": ""}, {"id": "225", "type": "BIKE", "latitude": 41.384956, "longitude": 2.150814, "streetName": "C/ MALLORCA, 84", "streetNumber": "", "slots": 20, "bikes": 4, "type_bicing": 2, "electrical_bikes": 0, "mechanical_bikes": 4, "status": 1, "disponibilidad": 25, "icon": "/modules/custom/mapa_disponibilitat/assets/icons/ubicacio-25.png", "transition_start": "", "transition_end": ""}, {"id": "224", "type": "BIKE", "latitude": 41.399945, "longitude": 2.164389, "streetName": "C / GIRONA, 176", "streetNumber": "", "slots": 25, "bikes": 1, "type_bicing": 2, "electrical_bikes": 1, "mechanical_bikes": 0, "status": 1, "disponibilidad": 25, "icon": "/modules/custom/mapa_disponibilitat/assets/icons/ubicacio-25.png", "transition_start": "", "transition_end": ""}, {"id": "223", "type": "BIKE", "latitude": 41.398311, "longitude": 2.159865, "streetName": "C/ DE BONAVISTA, 14", "streetNumber": "", "slots": 32, "bikes": 1, "type_bicing": 2, "electrical_bikes": 1, "mechanical_bikes": 0, "status": 1, "disponibilidad": 25, "icon": "/modules/custom/mapa_disponibilitat/assets/icons/ubicacio-25.png", "transition_start": "", "transition_end": ""}, {"id": "222", "type": "BIKE", "latitude": 41.40124, "longitude": 2.157483, "streetName": "C/ DEL CAN\u00d3, 1", "streetNumber": "", "slots": 13, "bikes": 10, "type_bicing": 2, "electrical_bikes": 3, "mechanical_bikes": 7, "status": 1, "disponibilidad": 50, "icon": "/modules/custom/mapa_disponibilitat/assets/icons/ubicacio-50.png", "transition_start": "", "transition_end": ""}, {"id": "221", "type": "BIKE", "latitude": 41.402535, "longitude": 2.152519, "streetName": "GRAN DE GR\u00c0CIA, 155 (METRO FONTANA)", "streetNumber": "", "slots": 19, "bikes": 4, "type_bicing": 2, "electrical_bikes": 3, "mechanical_bikes": 1, "status": 1, "disponibilidad": 25, "icon": "/modules/custom/mapa_disponibilitat/assets/icons/ubicacio-25.png", "transition_start": "", "transition_end": ""}, {"id": "220", "type": "BIKE", "latitude": 41.396229, "longitude": 2.151482, "streetName": "C/ TUSET, 19", "streetNumber": "", "slots": 22, "bikes": 4, "type_bicing": 2, "electrical_bikes": 2, "mechanical_bikes": 2, "status": 1, "disponibilidad": 25, "icon": "/modules/custom/mapa_disponibilitat/assets/icons/ubicacio-25.png", "transition_start": "", "transition_end": ""}, {"id": "219", "type": "BIKE", "latitude": 41.397698, "longitude": 2.147358, "streetName": "C/ LAFORJA, 74-76", "streetNumber": "", "slots": 23, "bikes": 1, "type_bicing": 2, "electrical_bikes": 1, "mechanical_bikes": 0, "status": 1, "disponibilidad": 25, "icon": "/modules/custom/mapa_disponibilitat/assets/icons/ubicacio-25.png", "transition_start": "", "transition_end": ""}, {"id": "218", "type": "BIKE", "latitude": 41.404114, "longitude": 2.183203, "streetName": "C/ CONSELL DE CENT, 566", "streetNumber": "", "slots": 15, "bikes": 11, "type_bicing": 2, "electrical_bikes": 0, "mechanical_bikes": 11, "status": 1, "disponibilidad": 50, "icon": "/modules/custom/mapa_disponibilitat/assets/icons/ubicacio-50.png", "transition_start": "", "transition_end": ""}, {"id": "217", "type": "BIKE", "latitude": 41.398463, "longitude": 2.143924, "streetName": "C/ RECTOR UBACH, 24", "streetNumber": "", "slots": 25, "bikes": 2, "type_bicing": 2, "electrical_bikes": 1, "mechanical_bikes": 1, "status": 1, "disponibilidad": 25, "icon": "/modules/custom/mapa_disponibilitat/assets/icons/ubicacio-25.png", "transition_start": "", "transition_end": ""}, {"id": "216", "type": "BIKE", "latitude": 41.396809, "longitude": 2.144534, "streetName": "C/ MADRAZO, 131", "streetNumber": "", "slots": 27, "bikes": 0, "type_bicing": 2, "electrical_bikes": 0, "mechanical_bikes": 0, "status": 1, "disponibilidad": 0, "icon": "/modules/custom/mapa_disponibilitat/assets/icons/ubicacio-0.png", "transition_start": "", "transition_end": ""}, {"id": "215", "type": "BIKE", "latitude": 41.39412, "longitude": 2.138146, "streetName": "C/ GANDUXER, 29", "streetNumber": "", "slots": 19, "bikes": 0, "type_bicing": 2, "electrical_bikes": 0, "mechanical_bikes": 0, "status": 1, "disponibilidad": 0, "icon": "/modules/custom/mapa_disponibilitat/assets/icons/ubicacio-0.png", "transition_start": "", "transition_end": ""}, {"id": "214", "type": "BIKE", "latitude": 41.395251, "longitude": 2.133541, "streetName": "C/ JOS\u00c9 DE  AGULL\u00d3, 9", "streetNumber": "", "slots": 25, "bikes": 0, "type_bicing": 2, "electrical_bikes": 0, "mechanical_bikes": 0, "status": 1, "disponibilidad": 0, "icon": "/modules/custom/mapa_disponibilitat/assets/icons/ubicacio-0.png", "transition_start": "", "transition_end": ""}, {"id": "213", "type": "BIKE", "latitude": 41.393783, "longitude": 2.135078, "streetName": "C/ SANTA FE DE NOU M\u00c8XIC, 2", "streetNumber": "", "slots": 31, "bikes": 0, "type_bicing": 2, "electrical_bikes": 0, "mechanical_bikes": 0, "status": 1, "disponibilidad": 0, "icon": "/modules/custom/mapa_disponibilitat/assets/icons/ubicacio-0.png", "transition_start": "", "transition_end": ""}, {"id": "212", "type": "BIKE", "latitude": 41.39239, "longitude": 2.130945, "streetName": "AV. SARRI\u00c0, 163", "streetNumber": "", "slots": 23, "bikes": 1, "type_bicing": 2, "electrical_bikes": 1, "mechanical_bikes": 0, "status": 1, "disponibilidad": 25, "icon": "/modules/custom/mapa_disponibilitat/assets/icons/ubicacio-25.png", "transition_start": "", "transition_end": ""}, {"id": "211", "type": "BIKE", "latitude": 41.398772, "longitude": 2.190167, "streetName": "C/ SANCHO DE \u00c1VILA, 60-64", "streetNumber": "", "slots": 14, "bikes": 14, "type_bicing": 2, "electrical_bikes": 1, "mechanical_bikes": 13, "status": 1, "disponibilidad": 50, "icon": "/modules/custom/mapa_disponibilitat/assets/icons/ubicacio-50.png", "transition_start": "", "transition_end": ""}, {"id": "210", "type": "BIKE", "latitude": 41.37453, "longitude": 2.142356, "streetName": "C/ VILARDELL, 18", "streetNumber": "", "slots": 4, "bikes": 23, "type_bicing": 2, "electrical_bikes": 0, "mechanical_bikes": 23, "status": 1, "disponibilidad": 75, "icon": "/modules/custom/mapa_disponibilitat/assets/icons/ubicacio-75.png", "transition_start": "", "transition_end": ""}, {"id": "209", "type": "BIKE", "latitude": 41.385755, "longitude": 2.161004, "streetName": "C/ DIPUTACI\u00d3, 200", "streetNumber": "", "slots": 22, "bikes": 4, "type_bicing": 2, "electrical_bikes": 0, "mechanical_bikes": 4, "status": 1, "disponibilidad": 25, "icon": "/modules/custom/mapa_disponibilitat/assets/icons/ubicacio-25.png", "transition_start": "", "transition_end": ""}, {"id": "208", "type": "BIKE", "latitude": 41.391451, "longitude": 2.139116, "streetName": "AV. DIAGONAL, 630", "streetNumber": "", "slots": 32, "bikes": 1, "type_bicing": 2, "electrical_bikes": 1, "mechanical_bikes": 0, "status": 1, "disponibilidad": 25, "icon": "/modules/custom/mapa_disponibilitat/assets/icons/ubicacio-25.png", "transition_start": "", "transition_end": ""}, {"id": "207", "type": "BIKE", "latitude": 41.390828, "longitude": 2.136665, "streetName": "AV. DIAGONAL, 634", "streetNumber": "", "slots": 22, "bikes": 0, "type_bicing": 2, "electrical_bikes": 0, "mechanical_bikes": 0, "status": 1, "disponibilidad": 0, "icon": "/modules/custom/mapa_disponibilitat/assets/icons/ubicacio-0.png", "transition_start": "", "transition_end": ""}, {"id": "206", "type": "BIKE", "latitude": 41.389845, "longitude": 2.13284, "streetName": "AV. DIAGONAL, 650", "streetNumber": "", "slots": 31, "bikes": 2, "type_bicing": 2, "electrical_bikes": 2, "mechanical_bikes": 0, "status": 1, "disponibilidad": 25, "icon": "/modules/custom/mapa_disponibilitat/assets/icons/ubicacio-25.png", "transition_start": "", "transition_end": ""}, {"id": "205", "type": "BIKE", "latitude": 41.387465, "longitude": 2.130838, "streetName": "C/ EUROPA, 25", "streetNumber": "", "slots": 31, "bikes": 1, "type_bicing": 2, "electrical_bikes": 0, "mechanical_bikes": 1, "status": 1, "disponibilidad": 25, "icon": "/modules/custom/mapa_disponibilitat/assets/icons/ubicacio-25.png", "transition_start": "", "transition_end": ""}, {"id": "204", "type": "BIKE", "latitude": 41.388011, "longitude": 2.125593, "streetName": "AV. DIAGONAL, 664", "streetNumber": "", "slots": 33, "bikes": 0, "type_bicing": 2, "electrical_bikes": 0, "mechanical_bikes": 0, "status": 1, "disponibilidad": 0, "icon": "/modules/custom/mapa_disponibilitat/assets/icons/ubicacio-0.png", "transition_start": "", "transition_end": ""}, {"id": "203", "type": "BIKE", "latitude": 41.388742, "longitude": 2.128503, "streetName": "AV. DIAGONAL, 668", "streetNumber": "", "slots": 33, "bikes": 0, "type_bicing": 2, "electrical_bikes": 0, "mechanical_bikes": 0, "status": 1, "disponibilidad": 0, "icon": "/modules/custom/mapa_disponibilitat/assets/icons/ubicacio-0.png", "transition_start": "", "transition_end": ""}, {"id": "202", "type": "BIKE", "latitude": 41.385331, "longitude": 2.128737, "streetName": "C/ DE LES CORTS, 20", "streetNumber": "", "slots": 27, "bikes": 0, "type_bicing": 2, "electrical_bikes": 0, "mechanical_bikes": 0, "status": 1, "disponibilidad": 0, "icon": "/modules/custom/mapa_disponibilitat/assets/icons/ubicacio-0.png", "transition_start": "", "transition_end": ""}, {"id": "201", "type": "BIKE", "latitude": 41.387787, "longitude": 2.134341, "streetName": "C/ NUM\u00c0NCIA, 136", "streetNumber": "", "slots": 23, "bikes": 0, "type_bicing": 2, "electrical_bikes": 0, "mechanical_bikes": 0, "status": 1, "disponibilidad": 0, "icon": "/modules/custom/mapa_disponibilitat/assets/icons/ubicacio-0.png", "transition_start": "", "transition_end": ""}, {"id": "200", "type": "BIKE", "latitude": 41.383756, "longitude": 2.131273, "streetName": "C/ CAN BRUIXA, 1", "streetNumber": "", "slots": 24, "bikes": 0, "type_bicing": 2, "electrical_bikes": 0, "mechanical_bikes": 0, "status": 1, "disponibilidad": 0, "icon": "/modules/custom/mapa_disponibilitat/assets/icons/ubicacio-0.png", "transition_start": "", "transition_end": ""}, {"id": "199", "type": "BIKE", "latitude": 41.38182, "longitude": 2.126933, "streetName": "C/ MEJ\u00cdA LEQUERICA, 2", "streetNumber": "", "slots": 27, "bikes": 0, "type_bicing": 2, "electrical_bikes": 0, "mechanical_bikes": 0, "status": 1, "disponibilidad": 0, "icon": "/modules/custom/mapa_disponibilitat/assets/icons/ubicacio-0.png", "transition_start": "", "transition_end": ""}, {"id": "198", "type": "BIKE", "latitude": 41.38451, "longitude": 2.133617, "streetName": "C/ VALLESPIR, 194", "streetNumber": "", "slots": 23, "bikes": 1, "type_bicing": 2, "electrical_bikes": 0, "mechanical_bikes": 1, "status": 1, "disponibilidad": 25, "icon": "/modules/custom/mapa_disponibilitat/assets/icons/ubicacio-25.png", "transition_start": "", "transition_end": ""}, {"id": "197", "type": "BIKE", "latitude": 41.38712, "longitude": 2.141039, "streetName": "C/ GELABERT, 1", "streetNumber": "", "slots": 26, "bikes": 0, "type_bicing": 2, "electrical_bikes": 0, "mechanical_bikes": 0, "status": 1, "disponibilidad": 0, "icon": "/modules/custom/mapa_disponibilitat/assets/icons/ubicacio-0.png", "transition_start": "", "transition_end": ""}, {"id": "196", "type": "BIKE", "latitude": 41.383241, "longitude": 2.139363, "streetName": "C/ BERL\u00cdN, 38", "streetNumber": "", "slots": 26, "bikes": 1, "type_bicing": 2, "electrical_bikes": 0, "mechanical_bikes": 1, "status": 1, "disponibilidad": 25, "icon": "/modules/custom/mapa_disponibilitat/assets/icons/ubicacio-25.png", "transition_start": "", "transition_end": ""}, {"id": "195", "type": "BIKE", "latitude": 41.381888, "longitude": 2.135433, "streetName": "C/ VALLESPIR, 130", "streetNumber": "", "slots": 24, "bikes": 1, "type_bicing": 2, "electrical_bikes": 0, "mechanical_bikes": 1, "status": 1, "disponibilidad": 25, "icon": "/modules/custom/mapa_disponibilitat/assets/icons/ubicacio-25.png", "transition_start": "", "transition_end": ""}, {"id": "194", "type": "BIKE", "latitude": 41.381013, "longitude": 2.132319, "streetName": "C/ JOAN G\u00dcELL, 98", "streetNumber": "", "slots": 24, "bikes": 0, "type_bicing": 2, "electrical_bikes": 0, "mechanical_bikes": 0, "status": 1, "disponibilidad": 0, "icon": "/modules/custom/mapa_disponibilitat/assets/icons/ubicacio-0.png", "transition_start": "", "transition_end": ""}, {"id": "193", "type": "BIKE", "latitude": 41.381311, "longitude": 2.128912, "streetName": "C/ F\u00cdGOLS, 1", "streetNumber": "", "slots": 27, "bikes": 0, "type_bicing": 2, "electrical_bikes": 0, "mechanical_bikes": 0, "status": 1, "disponibilidad": 0, "icon": "/modules/custom/mapa_disponibilitat/assets/icons/ubicacio-0.png", "transition_start": "", "transition_end": ""}, {"id": "192", "type": "BIKE", "latitude": 41.378629, "longitude": 2.133467, "streetName": "C/ JOAN G\u00dcELL, 50", "streetNumber": "", "slots": 19, "bikes": 2, "type_bicing": 2, "electrical_bikes": 0, "mechanical_bikes": 2, "status": 1, "disponibilidad": 25, "icon": "/modules/custom/mapa_disponibilitat/assets/icons/ubicacio-25.png", "transition_start": "", "transition_end": ""}, {"id": "191", "type": "BIKE", "latitude": 41.382564, "longitude": 2.149094, "streetName": "C/ ROCAFORT, 167", "streetNumber": "", "slots": 21, "bikes": 3, "type_bicing": 2, "electrical_bikes": 3, "mechanical_bikes": 0, "status": 1, "disponibilidad": 25, "icon": "/modules/custom/mapa_disponibilitat/assets/icons/ubicacio-25.png", "transition_start": "", "transition_end": ""}, {"id": "190", "type": "BIKE", "latitude": 41.39606, "longitude": 2.207803, "streetName": "AV. LITORAL, 72", "streetNumber": "", "slots": 26, "bikes": 3, "type_bicing": 2, "electrical_bikes": 0, "mechanical_bikes": 3, "status": 1, "disponibilidad": 25, "icon": "/modules/custom/mapa_disponibilitat/assets/icons/ubicacio-25.png", "transition_start": "", "transition_end": ""}, {"id": "189", "type": "BIKE", "latitude": 41.396918, "longitude": 2.166163, "streetName": "C/ BRUC, 130", "streetNumber": "", "slots": 12, "bikes": 16, "type_bicing": 2, "electrical_bikes": 0, "mechanical_bikes": 16, "status": 1, "disponibilidad": 50, "icon": "/modules/custom/mapa_disponibilitat/assets/icons/ubicacio-50.png", "transition_start": "", "transition_end": ""}, {"id": "188", "type": "BIKE", "latitude": 41.375802, "longitude": 2.135973, "streetName": "PG. SANT ANTONI /PL. SANTS", "streetNumber": "", "slots": 22, "bikes": 4, "type_bicing": 2, "electrical_bikes": 1, "mechanical_bikes": 3, "status": 1, "disponibilidad": 25, "icon": "/modules/custom/mapa_disponibilitat/assets/icons/ubicacio-25.png", "transition_start": "", "transition_end": ""}, {"id": "187", "type": "BIKE", "latitude": "41.376858", "longitude": "2.169811", "streetName": "Carrer de Sant Pau 89", "streetNumber": "", "slots": 19, "bikes": 0, "type_bicing": 2, "electrical_bikes": 0, "mechanical_bikes": 0, "status": 0, "disponibilidad": 0, "icon": "/modules/custom/mapa_disponibilitat/assets/icons/ubicacio3.png", "transition_start": "", "transition_end": ""}, {"id": "186", "type": "BIKE", "latitude": 41.375571, "longitude": 2.143812, "streetName": "C/CONSELL DE CENT, 6", "streetNumber": "", "slots": 5, "bikes": 16, "type_bicing": 2, "electrical_bikes": 1, "mechanical_bikes": 15, "status": 1, "disponibilidad": 75, "icon": "/modules/custom/mapa_disponibilitat/assets/icons/ubicacio-75.png", "transition_start": "", "transition_end": ""}, {"id": "185", "type": "BIKE", "latitude": 41.37046, "longitude": 2.138994, "streetName": "C/GAV\u00c0, 81", "streetNumber": "", "slots": 7, "bikes": 10, "type_bicing": 2, "electrical_bikes": 0, "mechanical_bikes": 10, "status": 1, "disponibilidad": 50, "icon": "/modules/custom/mapa_disponibilitat/assets/icons/ubicacio-50.png", "transition_start": "", "transition_end": ""}, {"id": "184", "type": "BIKE", "latitude": 41.367504, "longitude": 2.134088, "streetName": "C/ QUETZAL, 22-24", "streetNumber": "", "slots": 5, "bikes": 22, "type_bicing": 2, "electrical_bikes": 0, "mechanical_bikes": 22, "status": 1, "disponibilidad": 75, "icon": "/modules/custom/mapa_disponibilitat/assets/icons/ubicacio-75.png", "transition_start": "", "transition_end": ""}, {"id": "183", "type": "BIKE", "latitude": 41.372338, "longitude": 2.141875, "streetName": "C/ GAV\u00c0, 1", "streetNumber": "", "slots": 2, "bikes": 25, "type_bicing": 2, "electrical_bikes": 0, "mechanical_bikes": 25, "status": 1, "disponibilidad": 75, "icon": "/modules/custom/mapa_disponibilitat/assets/icons/ubicacio-75.png", "transition_start": "", "transition_end": ""}, {"id": "182", "type": "BIKE", "latitude": 41.371455, "longitude": 2.143882, "streetName": "GRAN VIA DE LES CORTS CATALANES, 273", "streetNumber": "", "slots": 2, "bikes": 25, "type_bicing": 2, "electrical_bikes": 1, "mechanical_bikes": 24, "status": 1, "disponibilidad": 75, "icon": "/modules/custom/mapa_disponibilitat/assets/icons/ubicacio-75.png", "transition_start": "", "transition_end": ""}, {"id": "180", "type": "BIKE", "latitude": 41.36778, "longitude": 2.13926, "streetName": "GRAN VIA DE LES CORTS CATALANES/MOSS\u00c8N AMADEU OLLER", "streetNumber": "", "slots": 11, "bikes": 38, "type_bicing": 2, "electrical_bikes": 1, "mechanical_bikes": 37, "status": 1, "disponibilidad": 75, "icon": "/modules/custom/mapa_disponibilitat/assets/icons/ubicacio-75.png", "transition_start": "", "transition_end": ""}, {"id": "179", "type": "BIKE", "latitude": 41.363511, "longitude": 2.13677, "streetName": "PG. ZONA FRANCA, 244", "streetNumber": "", "slots": 0, "bikes": 13, "type_bicing": 2, "electrical_bikes": 0, "mechanical_bikes": 13, "status": 1, "disponibilidad": 100, "icon": "/modules/custom/mapa_disponibilitat/assets/icons/ubicacio-100.png", "transition_start": "", "transition_end": ""}, {"id": "178", "type": "BIKE", "latitude": 41.405389, "longitude": 2.216212, "streetName": "PG. DE GARCIA F\u00c0RIA, 85", "streetNumber": "", "slots": 27, "bikes": 0, "type_bicing": 2, "electrical_bikes": 0, "mechanical_bikes": 0, "status": 1, "disponibilidad": 0, "icon": "/modules/custom/mapa_disponibilitat/assets/icons/ubicacio-0.png", "transition_start": "", "transition_end": ""}, {"id": "177", "type": "BIKE", "latitude": 41.411089, "longitude": 2.181119, "streetName": "C/ ROSSELL\u00d3, 557", "streetNumber": "", "slots": 6, "bikes": 18, "type_bicing": 2, "electrical_bikes": 4, "mechanical_bikes": 14, "status": 1, "disponibilidad": 75, "icon": "/modules/custom/mapa_disponibilitat/assets/icons/ubicacio-75.png", "transition_start": "", "transition_end": ""}, {"id": "176", "type": "BIKE", "latitude": 41.402541, "longitude": 2.212641, "streetName": "PG. DE GARCIA F\u00c0RIA, 37/JOSEP FERRATER", "streetNumber": "", "slots": 27, "bikes": 0, "type_bicing": 2, "electrical_bikes": 0, "mechanical_bikes": 0, "status": 1, "disponibilidad": 0, "icon": "/modules/custom/mapa_disponibilitat/assets/icons/ubicacio-0.png", "transition_start": "", "transition_end": ""}, {"id": "175", "type": "BIKE", "latitude": 41.40666, "longitude": 2.20956, "streetName": "C/ LLULL, 309", "streetNumber": "", "slots": 6, "bikes": 21, "type_bicing": 2, "electrical_bikes": 1, "mechanical_bikes": 20, "status": 1, "disponibilidad": 75, "icon": "/modules/custom/mapa_disponibilitat/assets/icons/ubicacio-75.png", "transition_start": "", "transition_end": ""}, {"id": "174", "type": "BIKE", "latitude": 41.40061, "longitude": 2.210461, "streetName": "PG. DE GARCIA F\u00c0RIA, 21/ESPRONCEDA", "streetNumber": "", "slots": 21, "bikes": 6, "type_bicing": 2, "electrical_bikes": 0, "mechanical_bikes": 6, "status": 1, "disponibilidad": 25, "icon": "/modules/custom/mapa_disponibilitat/assets/icons/ubicacio-25.png", "transition_start": "", "transition_end": ""}, {"id": "173", "type": "BIKE", "latitude": 41.398027, "longitude": 2.208982, "streetName": "AV.LITORAL, 84", "streetNumber": "", "slots": 16, "bikes": 11, "type_bicing": 2, "electrical_bikes": 0, "mechanical_bikes": 11, "status": 1, "disponibilidad": 50, "icon": "/modules/custom/mapa_disponibilitat/assets/icons/ubicacio-50.png", "transition_start": "", "transition_end": ""}, {"id": "171", "type": "BIKE", "latitude": 41.391986, "longitude": 2.203699, "streetName": "PG. MAR\u00cdTIM DE LA NOVA IC\u00c0RIA, 83", "streetNumber": "", "slots": 46, "bikes": 8, "type_bicing": 2, "electrical_bikes": 2, "mechanical_bikes": 6, "status": 1, "disponibilidad": 25, "icon": "/modules/custom/mapa_disponibilitat/assets/icons/ubicacio-25.png", "transition_start": "", "transition_end": ""}, {"id": "170", "type": "BIKE", "latitude": 41.389732, "longitude": 2.199934, "streetName": "AV.LITORAL, 40 (ANNEXA A LA 169)", "streetNumber": "", "slots": 50, "bikes": 4, "type_bicing": 2, "electrical_bikes": 1, "mechanical_bikes": 3, "status": 1, "disponibilidad": 25, "icon": "/modules/custom/mapa_disponibilitat/assets/icons/ubicacio-25.png", "transition_start": "", "transition_end": ""}, {"id": "168", "type": "BIKE", "latitude": 41.405358, "longitude": 2.213677, "streetName": "SELVA DE MAR / PG. DEL TAULAT", "streetNumber": "", "slots": 26, "bikes": 1, "type_bicing": 2, "electrical_bikes": 0, "mechanical_bikes": 1, "status": 1, "disponibilidad": 25, "icon": "/modules/custom/mapa_disponibilitat/assets/icons/ubicacio-25.png", "transition_start": "", "transition_end": ""}, {"id": "167", "type": "BIKE", "latitude": 41.402561, "longitude": 2.210538, "streetName": "C/ BAC DE RODA, 11", "streetNumber": "", "slots": 8, "bikes": 13, "type_bicing": 2, "electrical_bikes": 0, "mechanical_bikes": 13, "status": 1, "disponibilidad": 50, "icon": "/modules/custom/mapa_disponibilitat/assets/icons/ubicacio-50.png", "transition_start": "", "transition_end": ""}, {"id": "166", "type": "BIKE", "latitude": 41.400533, "longitude": 2.206539, "streetName": "C/ BILBAO, 2", "streetNumber": "", "slots": 3, "bikes": 23, "type_bicing": 2, "electrical_bikes": 0, "mechanical_bikes": 23, "status": 1, "disponibilidad": 75, "icon": "/modules/custom/mapa_disponibilitat/assets/icons/ubicacio-75.png", "transition_start": "", "transition_end": ""}, {"id": "165", "type": "BIKE", "latitude": 41.399196, "longitude": 2.204253, "streetName": "C/ DEL DOCTOR TRUETA, 222", "streetNumber": "", "slots": 5, "bikes": 20, "type_bicing": 2, "electrical_bikes": 0, "mechanical_bikes": 20, "status": 1, "disponibilidad": 75, "icon": "/modules/custom/mapa_disponibilitat/assets/icons/ubicacio-75.png", "transition_start": "", "transition_end": ""}, {"id": "164", "type": "BIKE", "latitude": 41.411901, "longitude": 2.177895, "streetName": "C/ INDEPEND\u00c8NCIA, 379", "streetNumber": "", "slots": 17, "bikes": 8, "type_bicing": 2, "electrical_bikes": 2, "mechanical_bikes": 6, "status": 1, "disponibilidad": 25, "icon": "/modules/custom/mapa_disponibilitat/assets/icons/ubicacio-25.png", "transition_start": "", "transition_end": ""}, {"id": "163", "type": "BIKE", "latitude": 41.3942, "longitude": 2.20077, "streetName": "AV. IC\u00c0RIA, 202", "streetNumber": "", "slots": 16, "bikes": 9, "type_bicing": 2, "electrical_bikes": 0, "mechanical_bikes": 9, "status": 1, "disponibilidad": 25, "icon": "/modules/custom/mapa_disponibilitat/assets/icons/ubicacio-25.png", "transition_start": "", "transition_end": ""}, {"id": "162", "type": "BIKE", "latitude": 41.403908, "longitude": 2.208436, "streetName": "C/ RAMON TURR\u00d3, 292", "streetNumber": "", "slots": 25, "bikes": 2, "type_bicing": 2, "electrical_bikes": 0, "mechanical_bikes": 2, "status": 1, "disponibilidad": 25, "icon": "/modules/custom/mapa_disponibilitat/assets/icons/ubicacio-25.png", "transition_start": "", "transition_end": ""}, {"id": "161", "type": "BIKE", "latitude": 41.395009, "longitude": 2.196308, "streetName": "C/ RAMON TURR\u00d3, 91", "streetNumber": "", "slots": 25, "bikes": 0, "type_bicing": 2, "electrical_bikes": 0, "mechanical_bikes": 0, "status": 1, "disponibilidad": 0, "icon": "/modules/custom/mapa_disponibilitat/assets/icons/ubicacio-0.png", "transition_start": "", "transition_end": ""}, {"id": "160", "type": "BIKE", "latitude": 41.411026, "longitude": 2.219377, "streetName": "AV. D'EDUARD MARISTANY, 1 /FORUM", "streetNumber": "", "slots": 29, "bikes": 2, "type_bicing": 2, "electrical_bikes": 0, "mechanical_bikes": 2, "status": 1, "disponibilidad": 25, "icon": "/modules/custom/mapa_disponibilitat/assets/icons/ubicacio-25.png", "transition_start": "", "transition_end": ""}, {"id": "159", "type": "BIKE", "latitude": 41.410882, "longitude": 2.216703, "streetName": "AV. DIAGONAL, 26", "streetNumber": "", "slots": 23, "bikes": 9, "type_bicing": 2, "electrical_bikes": 0, "mechanical_bikes": 9, "status": 1, "disponibilidad": 25, "icon": "/modules/custom/mapa_disponibilitat/assets/icons/ubicacio-25.png", "transition_start": "", "transition_end": ""}, {"id": "158", "type": "BIKE", "latitude": 41.411741, "longitude": 2.218546, "streetName": "RAMBLA DE PRIM, 19", "streetNumber": "", "slots": 27, "bikes": 0, "type_bicing": 2, "electrical_bikes": 0, "mechanical_bikes": 0, "status": 1, "disponibilidad": 0, "icon": "/modules/custom/mapa_disponibilitat/assets/icons/ubicacio-0.png", "transition_start": "", "transition_end": ""},